CityState,Country,o,c,e,a,n,Latitude,Longitude,Count,o_std,c_std,e_std,a_std,n_std
Singapore,Singapore,0.7161996755916341,0.550814010853478,0.4882074942817419,0.6415852842684368,0.5493452033905907,1.314767508791982,103.8208014858449,45496,0.1576779917938478,0.1947879545454472,0.2157285774031274,0.1568220568749006,0.2143540802902905
Sydney,Australia,0.7350887414844031,0.5582466833990678,0.524703697063862,0.6504895223297877,0.5454772718218398,-33.87119967712286,151.20014124107374,42431,0.1663870411587948,0.1950341884800284,0.222196883050258,0.1640187538329483,0.2130291015250899
Melbourne,Australia,0.7322685461486723,0.5550339377232122,0.5256593344132776,0.6497978656890329,0.54913213686873,-37.82085604872584,144.9693698431812,35710,0.1678425189115288,0.1924240097942232,0.2193347219688089,0.1628421241090177,0.2096686215681434
Toronto,Canada,0.7392778789837613,0.5674270582358818,0.5252706851971558,0.6510811492429139,0.5522265724471607,43.68168067369756,-79.40362625633934,34704,0.1597453388018779,0.1889486844371281,0.2176719624377831,0.1618737629722098,0.2060738405119946
Kuala Lumpur,Malaysia,0.7059642639439195,0.538230214365539,0.4717635629381286,0.6583123793558875,0.5844915168139795,3.1417354941764724,101.68959435312436,33399,0.1444924106294379,0.1784767322277786,0.1941361243441517,0.1402914426763171,0.1785781497493898
"New York, New York",United States,0.7533218944377321,0.5670084351367074,0.5336118942139885,0.6478714984114199,0.5505192251756388,40.72565974327149,-73.99757671478964,30616,0.1630401770460642,0.1944300998310448,0.2255079566516044,0.1673525830368115,0.2168809615392551
"Los Angeles, California",United States,0.7599522903423666,0.5528482909557266,0.5254169803167169,0.6521037205865953,0.5587144181443069,34.051467352415024,-118.25699243779476,24596,0.1596975974784791,0.1902143895721458,0.2232125900505157,0.1651309659113638,0.2104398006004883
"Chicago, Illinois",United States,0.7501916548999473,0.5645083650678191,0.523986279292,0.6604820076162766,0.5523574444111649,41.86566228621003,-87.65190872097827,24206,0.1608888904550226,0.1904628605107205,0.2230704275638226,0.1632075991595352,0.212814045790511
Jakarta,Indonesia,0.7419616180188462,0.5668802191067187,0.4809880870298016,0.620456025434766,0.5804987359227763,-6.211821906897479,106.84327001076328,22298,0.1375375039106318,0.1906398119933261,0.1981475447503234,0.1443183566421867,0.1918613668457461
Brisbane,Australia,0.7303619821912505,0.556869918699187,0.5222377080913666,0.6495160665892373,0.5456020131629888,-27.46660258640421,153.03201201190203,21845,0.1693106071067124,0.1936250799175623,0.2242384446214915,0.1681076101514677,0.2144861812185862
Mumbai,India,0.7591249223932294,0.5746924321144986,0.5139365421690684,0.6635307404502826,0.558738113910401,19.073792789089325,72.88430222953039,20677,0.1432420924894832,0.1931441219106459,0.2089996225931008,0.1523218987157341,0.1841398868856966
Delhi,India,0.765198687690402,0.5578780422483345,0.5094113019316393,0.6568212061866023,0.5667087225067792,28.653614782479288,77.23785710104669,20159,0.1413139110738309,0.1953700660505632,0.2075069675110355,0.1525188077928911,0.1860483495199758
Hanoi,Vietnam,0.7032564459739976,0.4995277049419133,0.4490308277795987,0.6236400178447867,0.5986470738191486,21.028923823102165,105.84840139344703,18587,0.1410297857944367,0.1622506906438578,0.1832997649141178,0.1295838666600851,0.1788471276783164
Bengaluru,India,0.7556563004106174,0.5772599996333774,0.5190850014664906,0.6636168243144156,0.5486989477929315,12.963701960891116,77.58591377526008,18359,0.1410356561155794,0.1930364665404125,0.2081488955502936,0.1517426954774217,0.1908582604914823
Ho Chi Minh City,Vietnam,0.7044702532241364,0.5155841099501082,0.4538642568012803,0.6270827449872918,0.5889155605761085,10.821961320386182,106.62604891455996,17919,0.1397033883891892,0.1642599547764889,0.1818914501432174,0.1288224131603098,0.179055867947366
"Atlanta, Georgia",United States,0.7450629919702543,0.5667855800799019,0.5276875420276097,0.6679040089395197,0.540522032356315,33.7592672795389,-84.39180756195965,17350,0.1643195956425542,0.1918736076894138,0.2262084831549807,0.1672975888683938,0.2156346521837933
"Houston, Texas",United States,0.7441875733794723,0.5535296813528601,0.5131259140250056,0.6604371356773568,0.5549728109744794,29.75892147760116,-95.3765635175819,16608,0.1642986047170259,0.1940238074962231,0.2278779494526885,0.1676720251807748,0.2143427142007342
"Dallas, Texas",United States,0.7464234952416265,0.558139445062415,0.5188661269723561,0.6626176718988176,0.5528583714415194,32.78706695788396,-96.80411080918238,16597,0.1640389769016406,0.1912016329876593,0.2276675820488924,0.1671789364303895,0.2140868027286424
"Charlotte, North Carolina",United States,0.7022615165956023,0.5511911106930859,0.5256275604046485,0.6600919133015635,0.5554549682300811,35.22967680710074,-80.84136891604354,16449,0.1710179690797412,0.1845792509883072,0.2207352400854141,0.1629227911443832,0.2059395151682067
London,United Kingdom,0.7496827615008995,0.5485441831577144,0.5152328021930952,0.6288470187612439,0.5554698877752078,51.513582295928,-0.1227934476870791,15889,0.1634470323441335,0.1967037370173002,0.2278595999185078,0.1711382703016651,0.2176774096738258
Auckland,New Zealand,0.7273602062975026,0.5475597176981541,0.5100841476655809,0.6390119435396309,0.5510328447339847,-36.8508099352874,174.76494960030453,15762,0.1664110921089603,0.1901399899788312,0.2191159307297242,0.1647222067588515,0.2115155678978848
Quezon City,Philippines,0.7541318003118754,0.5635281456590016,0.4760286947354549,0.6659858118644439,0.5988433704509016,14.650211891961083,121.04095963261648,15624,0.1393050571722,0.1875733559533062,0.1998109756469739,0.1550375953201536,0.1887283605359882
"Brooklyn, New York",United States,0.757932039478042,0.5475232386125279,0.5256756309200503,0.6504286171645581,0.5693128877701972,40.65713384032858,-73.95171618534206,15582,0.1626157489315508,0.1868789385518021,0.2181134198539886,0.1611747711745577,0.2078365077304267
"Seattle, Washington",United States,0.746834080920665,0.5483015042363282,0.5148738729554619,0.6479005255765484,0.5607896108015042,47.61930164856992,-122.33226449947034,15104,0.1641105300338683,0.1908327572363725,0.221943977204881,0.1610600489631426,0.212541247197447
Perth,Australia,0.7213824845147969,0.5426617343427391,0.5209738472126635,0.6506079376003671,0.5619393782977747,-31.945561144251627,115.86272764370932,14752,0.1677383432568549,0.1906457357576438,0.2192472820542662,0.1642433749291763,0.2112224589891751
Calgary,Canada,0.7395645363408522,0.5732487468671679,0.5190789473684211,0.667200814536341,0.5526989348370928,51.041629295089216,-114.08523493585018,13562,0.1604111002047307,0.1903812261412077,0.2198302502533807,0.1640559811196931,0.2101424529322552
Vancouver,Canada,0.7455308707390307,0.5655845507531603,0.5319004995836802,0.648432177730679,0.545533393888931,49.25833692822611,-123.11508943845296,13445,0.1603788894650585,0.1899104526666643,0.2212777640745579,0.1582007631142214,0.2098284808998765
"Denver, Colorado",United States,0.7520494267618055,0.5659056896229189,0.5225770998690505,0.6617009406985757,0.5476596114273498,39.73591667311412,-104.9862360541586,12925,0.163110673556229,0.1896146608461415,0.2250795264907932,0.1589840763623248,0.2153821336077095
Dublin,Ireland,0.7455279842297343,0.534652294946589,0.5250872426010282,0.6365663043767815,0.5671934521431046,53.34090438126311,-6.261543289831431,12873,0.1676473613055534,0.1957929606288515,0.2253405894328131,0.1668391353588451,0.2155190530794524
Central,Hong Kong,0.7059564765181214,0.518754833720031,0.4814651838813771,0.6130173747233112,0.5667853428274262,22.29068352757137,114.15025295267893,12785,0.1606737409044895,0.1875213530644337,0.2081893319127301,0.1531797525479926,0.1961576623044935
"Phoenix, Arizona",United States,0.7340823771072389,0.5581155262785097,0.5151455588610285,0.6687703640742314,0.5525145204703216,33.46475245924946,-112.07864331062986,12098,0.1643881622245175,0.1896349048437289,0.2254030296987732,0.1614801302727868,0.2139196187367732
"San Diego, California",United States,0.7416468742669481,0.575007697044335,0.541677662444288,0.6576629574243491,0.5347613183204316,32.768331105596445,-117.15651300701694,11686,0.1598304162275186,0.1885673605368279,0.2230978309553057,0.158638318556113,0.2109829267530966
"Philadelphia, Pennsylvania",United States,0.752073098109275,0.5549519874944171,0.5216019056126247,0.6657082775048385,0.5681572874795295,39.96009424678931,-75.16857056577577,11524,0.1611989522418902,0.1904189279032957,0.2208120808076699,0.159800960089413,0.2098408259762829
"Minneapolis, Minnesota",United States,0.7341761802830301,0.5594879741943156,0.5243396212391485,0.6659419966702343,0.5505522356998455,44.976526282440766,-93.27750256054162,11521,0.1681027168377397,0.1923738970529098,0.2245344609242905,0.1598335317038678,0.2114534993819503
"Portland, Oregon",United States,0.7652526072190664,0.5555611907552671,0.5135395065067773,0.6565552399843717,0.5586962401947525,45.519345602861634,-122.66836083580527,11462,0.1568857474943046,0.1929264834482261,0.2225685476668727,0.1594768576267179,0.2176730555772248
Hyderabad,India,0.7539978874903976,0.574126189209951,0.5135189534952431,0.6657932251964782,0.5465398422265556,17.41093994415845,78.44841449262717,11461,0.1417793422327912,0.1960682924442623,0.2052249731266522,0.1518183170140577,0.1902063627891337
Stockholm,Sweden,0.7352086420896629,0.5543469031740151,0.5466762381128814,0.6233713103618624,0.5187106335679882,59.3296697436362,18.06025127276021,11039,0.165603876027624,0.1965204628402391,0.2291302383184462,0.1691431556575907,0.2170992316424396
"San Francisco, California",United States,0.7552594479234819,0.5584283577904477,0.529303751129389,0.6449551359940181,0.5497787955260616,37.76860213578115,-122.42702977369808,11003,0.1576096849513768,0.188615394586749,0.2203078363555298,0.1586882738800933,0.2102389009239575
Montreal,Canada,0.7622009085534708,0.5466683779831357,0.5216170384890632,0.6337491054482094,0.5550091010921311,45.513111388355725,-73.5922160954209,10941,0.1595176420632297,0.1943857028862308,0.2274311005120852,0.1671172180263907,0.2099468575146818
Chennai,India,0.7530664288619794,0.570815341531337,0.517362088926437,0.6567965987671704,0.545378453643731,12.904192167948835,80.2219418945222,10789,0.1424360781600204,0.1940164166108341,0.2079378100578101,0.149262889231071,0.192672183467552
Helsinki,Finland,0.7645112555381809,0.5105164353661715,0.4856251628876727,0.6064715272348189,0.5615287822517592,60.17857734643266,24.934767827165203,10484,0.1522175534634492,0.1979044501645787,0.2314452134395078,0.1727059379063515,0.2144053281507648
"Miami, Florida",United States,0.7506299587972896,0.5605760717812511,0.5359757550992611,0.6575492900194095,0.5416389995573263,25.77390372413793,-80.20895243349753,10150,0.1591409510428092,0.1916241155886845,0.2237562674954217,0.1669706490784568,0.2125671257957617
Cebu City,Philippines,0.7442993366500829,0.5791189883913764,0.4841480099502487,0.6881882255389719,0.5958789386401326,10.310032974945749,123.89297228250147,10138,0.1370379536734569,0.1840923800763586,0.1869319455996046,0.1451082939689698,0.1809486317605977
Adelaide,Australia,0.7168598371552011,0.5516949152542373,0.5201769690927218,0.6486228813559322,0.5551262878032569,-34.92510772951629,138.60061337611054,10130,0.1719283880189409,0.1925128212420231,0.2229079140602285,0.1678650133860499,0.209544985820772
"Washington, District of Columbia",United States,0.7622556637657135,0.5732749689183589,0.5393074837684763,0.6523065167840862,0.5417724305843349,38.89793618680984,-77.03571412217607,9871,0.1582577664151645,0.1928544208645967,0.2262289438514628,0.1626228777161434,0.2183285505109775
"Austin, Texas",United States,0.7635419959953631,0.5603352127024274,0.5364039940984298,0.6542180419433028,0.5423758211262164,30.270841294757364,-97.745417749051,9747,0.1596679606862442,0.1920992704491517,0.2244036289103053,0.1634744798346412,0.2149365045582009
Oslo,Norway,0.7339566577301161,0.5598704200178731,0.5630697050938338,0.6405563002680965,0.5199888293118856,59.95205633581386,10.848183492296403,9541,0.1664077039913349,0.1973076779900216,0.2246820662551266,0.1596863289079042,0.222173480639069
"Las Vegas, Nevada",United States,0.7407314764737696,0.5469826032089418,0.5019695330809446,0.6608910221741482,0.5682688840814855,36.16630781662617,-115.13238300411956,9467,0.1595456578207541,0.1907924495658539,0.2234457473538255,0.1662712987069922,0.2137339010571104
Mandaluyong City,Philippines,0.741788973175022,0.5702277557900909,0.478145155379654,0.671994099970683,0.591045056435063,14.576353134328356,121.04209582089553,9380,0.1402350697892783,0.1829883297682896,0.1906850720345596,0.1487169105428279,0.1819652827836385
Bangkok,Thailand,0.7219725037230759,0.5489289346554792,0.4694072136863899,0.6220397007010279,0.547675801823399,13.742101875267895,100.50271687741106,9332,0.1547318418916576,0.1855567805397357,0.2018239740750736,0.1537511343647002,0.1862223859565661
Pune,India,0.7652474526928675,0.5886053493449782,0.526146288209607,0.6656636644832605,0.5486694868995633,18.61499922555663,73.73020513122513,9297,0.1387548755631089,0.1919122255458124,0.206483612205549,0.1506615339480763,0.1823441837707014
"San Jose, California",United States,0.7386922749108942,0.5447296799938014,0.5026392763055942,0.6466783860220052,0.5657228227181157,37.3186277020286,-121.88615761002109,9021,0.1627337278382241,0.1923405254414778,0.2234072936887391,0.1629251431746021,0.2098141197773304
"Orlando, Florida",United States,0.7463762775157232,0.5578223270440251,0.523029677672956,0.6651901533018868,0.5513561320754717,28.53303187528552,-81.36728288031064,8756,0.1614723621583981,0.1929568081674613,0.2285747302394982,0.1651527596955912,0.2133472590687129
Kolkata,India,0.7783349204459787,0.5539444708963218,0.4730538031186763,0.6423615244216959,0.5785819148514066,22.51866071721552,88.38315968592524,8533,0.1449722611813414,0.2057728573232938,0.2137180753605842,0.1656249523374473,0.1948640713973859
Ottawa,Canada,0.7326942546190838,0.5516456804184595,0.514843288618915,0.6448446595798532,0.5613847760060744,45.40272096338167,-75.69284958220693,8138,0.1627757177506034,0.1912476705826719,0.2224515704066535,0.1645045099190969,0.2098320188194042
Amsterdam,Netherlands,0.7600896022897177,0.547081250800974,0.5253721859114017,0.6195480370797556,0.5143854927591952,52.366615362464,4.898438217102792,7987,0.1521071528650537,0.1984108091726462,0.2210240620898162,0.1662518637479798,0.2150307680322679
"Allen, Texas",United States,0.6690270390070922,0.5371287677304964,0.5214261968085107,0.6548232491134751,0.5750775709219857,33.11687471693258,-96.67792551466805,7772,0.1683276800359162,0.1727582439490163,0.2137306666990465,0.1606534854031373,0.1932722425104864
Paris,France,0.7635517799352751,0.5223503236245954,0.5231116280115067,0.622654283531104,0.5592665632865875,48.84422672316235,2.3798111467477527,7564,0.1516174367278719,0.1942854036783531,0.2278758819905033,0.1671655028699003,0.203192984540925
Burlington,Canada,0.7211181995997089,0.5692520696870451,0.5220131686681223,0.6591270924308588,0.5633528930131004,43.37836290386916,-79.8441400744582,7521,0.1672370842110876,0.1892885180918563,0.2232840439065744,0.1650333683859693,0.2073120122775997
"Indianapolis, Indiana",United States,0.7099221926258237,0.5655375251179962,0.5154855367073228,0.6691171316416655,0.5572076966213374,39.775677027572286,-86.161234001345,7435,0.1710353458772652,0.1875948092324423,0.2238133509861601,0.1610859933822709,0.2078917338799874
"San Antonio, Texas",United States,0.741772805308092,0.5535391146993318,0.5061914207498144,0.6651847856347439,0.5729195666295472,29.432601549447583,-98.49500161681487,7422,0.1616561324490248,0.1910353965835368,0.2267227994043628,0.1684084176365402,0.2122366256529602
"Boston, Massachusetts",United States,0.7558799245104978,0.564213257843831,0.5355272469922151,0.6572717622080679,0.5569916253833451,42.339046046385455,-71.0741411772684,7373,0.1581369678613234,0.1922233678210352,0.221957495281413,0.1591049683341581,0.2123405572232767
Warsaw,Poland,0.7655624243270932,0.4900810282201732,0.4778744062587315,0.5740313867933315,0.5938285834031852,52.22819612508498,21.01041670972128,7355,0.1555789660704026,0.2117872221853456,0.2352732841258353,0.1856087255554322,0.2124881731505348
Nairobi,Kenya,0.7633947783675226,0.6088138956629848,0.4767937407354277,0.6834235881987281,0.5085383493520776,-1.28274217312264,36.814007061949376,7151,0.152389500261806,0.2063062143555337,0.2267762544939294,0.1684496165537403,0.2138156711468651
Bucharest,Romania,0.7621174704629092,0.5396390180127832,0.499004333720705,0.5919735376718962,0.5742331251210536,44.4093019058296,26.07496472813901,7136,0.1457546415502415,0.1937910233180171,0.2241815828611967,0.1716511951511745,0.205765862610754
Ahmedabad,India,0.7473636646557502,0.604337235468735,0.5410292779852534,0.6768439385234128,0.5396916594848223,23.02761686235677,72.58691549016835,7069,0.1396459069609997,0.1810624951931573,0.1923242038530053,0.142702229117825,0.171939265524448
Surabaya,Indonesia,0.7369056417836906,0.5668268046316827,0.475840724316334,0.6212244395171224,0.5784522049765952,-7.247669148512032,112.73908143243628,7023,0.1400210994369639,0.1862248429695078,0.1982572169632885,0.1410644307250281,0.1854916111400884
Davao City,Philippines,0.7469340201128281,0.6000521216580819,0.4835387539857739,0.6856144223693893,0.5762355898945303,7.071204007469119,125.6089088336685,6962,0.1372289095041158,0.1890923748531123,0.18546730743782,0.1481311177161639,0.1815620911594822
"Flushing, New York",United States,0.7530535115382689,0.554315587926115,0.5027688091305,0.6515336386844872,0.5755493817890575,40.73007379856115,-73.84917974100719,6950,0.1579076337827188,0.1896182862246533,0.2199830846327287,0.1651380445484666,0.2098259352656858
Istanbul,Turkey,0.7837393513675086,0.5058723160464305,0.5087617695411747,0.5572815473521646,0.5755181089025059,41.02945672421297,28.95015499782388,6893,0.1482532029054234,0.2125098902409617,0.2246342183090258,0.1809074986428026,0.2012053560209499
"Tampa, Florida",United States,0.7317692521756729,0.5741626189030561,0.5344407761586724,0.6720710635498888,0.5524501619105444,27.962683124818152,-82.46049207157405,6874,0.1636135248941555,0.1901635598294586,0.2241492372711251,0.1635199605960896,0.2055906834016832
"Pittsburgh, Pennsylvania",United States,0.7339403806350648,0.562503155131506,0.5357413296986219,0.6579395729213994,0.5644593366651522,40.43762111423915,-79.98434376944732,6749,0.1679391041730139,0.1943672481481591,0.2260332207346885,0.162605080429859,0.2091022925266351
Edmonton,Canada,0.7430891543191211,0.5502154520713638,0.5067596512448342,0.6503880657191816,0.570122719483923,53.54752689225289,-113.49093674680914,6738,0.1624453209445864,0.1950158265240071,0.2284005217053528,0.1658740147601526,0.212755585281335
"St Louis, Missouri",United States,0.7396472000817494,0.564435162477008,0.5326678418148375,0.667726854690374,0.5511444921316165,38.62821885012726,-90.23464162299746,6679,0.1653831835819997,0.1928111165069882,0.2244943432905767,0.1604358357094614,0.2148409609934713
Zagreb,Croatia,0.7649010648645881,0.5394044693595453,0.5172432550043516,0.6147289202887422,0.5564397429990272,45.821440275490346,15.985273828417428,6679,0.152780994436568,0.198167593995871,0.2287506483089177,0.1714000456815812,0.2138577339636002
Dubai,United Arab Emirates,0.7385160386172532,0.5694520139105159,0.5284860635316101,0.6640714211564415,0.5538675646216132,25.07369189165268,55.298038450480696,6553,0.1489590305227195,0.1908836298934155,0.2086210029907282,0.158860419388698,0.1982638967331511
Belgrade,Serbia,0.7909764745904643,0.5262992620505574,0.5252623384100068,0.592263306641545,0.551456926780761,44.81553580227903,20.467597797967358,6494,0.1449191051026897,0.2045791797996277,0.2265635002850969,0.1727747675836863,0.2112747255390365
Lahore,Pakistan,0.7371825271366846,0.5753998050374117,0.519364527347455,0.679240436294657,0.5715367794288123,31.5611210926587,74.3402170107093,6443,0.1477677303659842,0.1860142109119166,0.2040865838412373,0.1451070472556113,0.1797247390013827
Cairo,Egypt,0.7368940248027057,0.5306410049927525,0.4960138508616524,0.6486350459011113,0.5925538197240564,30.057759308594992,31.233620853155724,6306,0.1500633911378866,0.1888044337222422,0.2064523747791865,0.1648633385856804,0.1893894966025879
Karachi,Pakistan,0.7396273140630075,0.5763167153837826,0.5233639168561222,0.6863937154920429,0.5671416585471474,24.86630403393629,67.015496558348,6247,0.1527601727194069,0.1898542641181996,0.2132931646335261,0.1493355983702258,0.1907308976794089
Mississauga,Canada,0.7301351796900758,0.5596837564567535,0.5162723925706122,0.6545808605341247,0.5545698703154193,43.57991496784566,-79.67667307073955,6220,0.1586585321171637,0.1926070370851747,0.2152940732627072,0.162148844958663,0.2056842583179556
Manila,Philippines,0.7513485155765873,0.5680560250126754,0.4782688299250746,0.6709410737423244,0.599452143541209,14.585459366368806,120.97243964256702,6155,0.137861614183294,0.1843720662573512,0.1940786184531622,0.1509676168003965,0.1886950722873632
Brampton,Canada,0.7291114790286976,0.5906318984547461,0.5379311534216336,0.6767832505518764,0.5493653421633554,43.69340394973069,-79.78777297209075,6127,0.1530372232588101,0.192678637013973,0.2127567623799403,0.1592417706707885,0.1941057972572447
Surrey,Canada,0.7272594873501997,0.5819601642254771,0.5346205059920106,0.6737925821127386,0.5570419995561474,49.11847373422906,-122.81195482549565,6103,0.1537161603339739,0.1882543328153599,0.2149050123043682,0.1550706117591281,0.1934652898364743
Lahug,Philippines,0.7444962634543528,0.5847101388656517,0.480543472198985,0.6852204283085159,0.5882026936590262,10.332941900362917,123.8984404486968,6062,0.1399541489820391,0.1865082539684139,0.1847051292073623,0.1499037605280373,0.1844205351745285
São Paulo,Brazil,0.761337575966059,0.5091481768145855,0.4610888946221764,0.5940151645453503,0.5898871975690861,-23.610753879744703,-46.639950033590864,5954,0.1532525410975971,0.1988899856604887,0.2336567127966137,0.1801211723489137,0.2079652302993674
"Columbus, Ohio",United States,0.7437349167108128,0.5661236682559303,0.5295706045087999,0.6621563953146153,0.5503377185237507,39.98214593856655,-82.99446300341297,5860,0.1651230664448253,0.1950526926414695,0.2289047625221965,0.1679003857645206,0.2117938617972906
Johannesburg,South Africa,0.7593020887880375,0.5766276837144353,0.4879196485715948,0.6668084889742247,0.5340991737941467,-26.373989875042795,27.84545757874016,5842,0.1579808531023539,0.1979561864711154,0.2228182384031184,0.1699635398492043,0.2122188259705222
Makati City,Philippines,0.7529720330597752,0.5673090914382166,0.483521040684477,0.663618241080263,0.6030680693789652,14.54995043806906,121.04530986084865,5821,0.1398384133616684,0.1840207299198666,0.1966069831564719,0.1528987450174854,0.1877508950957096
Winnipeg,Canada,0.7325903524492234,0.5612567204301075,0.515076164874552,0.663332586618877,0.5635827359617682,49.88012220477936,-97.15186446886446,5733,0.1607227263073371,0.1892794543937784,0.2185274553544446,0.1601286236475244,0.2067343429884654
Angeles City,Philippines,0.7455166395859663,0.5752993921887224,0.4700758259613649,0.6765774508033942,0.5984044953962809,15.152424034259743,120.58567902464604,5721,0.1365896304142495,0.1806659829775161,0.1933853396684689,0.1522526435911289,0.1808320465234223
Bandung,Indonesia,0.7431445868945868,0.5546800807217475,0.4678596866096866,0.6203814992877493,0.5953674026590694,-6.922062852626032,107.60829627612858,5693,0.1352802151295621,0.1819313716254107,0.1946412930883753,0.1382343643501344,0.1820989925442648
Birmingham,United Kingdom,0.7411484733285059,0.5350629073135409,0.5228510439295196,0.6435667089065894,0.5749720914796042,52.486416551602055,-1.8981836448929013,5649,0.1633504881975243,0.2000503448216528,0.2255885282362044,0.1753164656503464,0.2119090121182241
"Salt Lake City, Utah",United States,0.7381520210358955,0.561915244909191,0.5225952424631566,0.6676641900568703,0.5493984284229194,40.72737976550009,-111.8765411263102,5629,0.1662363090391462,0.1876962754459339,0.2268242834897175,0.1599702382137088,0.210285618463788
Lucknow,India,0.7665442287925509,0.5562496221053268,0.5048899570711651,0.6643161617993832,0.561929379043473,26.87557124754596,80.91152016776726,5603,0.1642671215785273,0.205375902161935,0.2151210178562957,0.1577890017425579,0.190965161675626
"Cincinnati, Ohio",United States,0.7313152023629965,0.5825831133735546,0.5478019733534439,0.676293834841629,0.5388346845148315,39.13350976177682,-84.50674203833064,5583,0.1661425016729499,0.1898914758000191,0.2257470259372915,0.1612709054942818,0.2108642760302288
Budapest,Hungary,0.7696029874213837,0.547625786163522,0.4985220125786163,0.5980070754716981,0.5707036163522012,47.55924697305279,19.09235245478036,5418,0.147532959689697,0.1964060699308895,0.231915200893021,0.1737534355523168,0.2120329483398613
Berlin,Germany,0.779593387801634,0.5337735132053961,0.5223810880993096,0.6155195072518842,0.5422446006713535,52.52163325265314,13.40675695401229,5371,0.1463641652814046,0.1934483868757988,0.2232863000758651,0.162993400899411,0.2138144023540284
New Delhi,India,0.7652044388771119,0.5667196633905056,0.5074356009507291,0.6524338343932677,0.5538518982462902,28.626354788545417,77.22259895695049,5273,0.1424387845018832,0.1935352811636889,0.2115861386048884,0.1542622159429585,0.1883920034253068
Madrid,Spain,0.7600449378799894,0.5412949378799894,0.5362683386201428,0.6315382963256674,0.5357107454401269,40.43570777756174,-3.687164464320436,5143,0.1538583971678738,0.1894111010383765,0.2243005995074738,0.1633937014308017,0.2056803105314475
"Kansas City, Missouri",United States,0.7346763770133228,0.5544467090872937,0.5195574004109498,0.6623500364552264,0.556211473453967,39.0907893385214,-94.57397579766536,5140,0.1674639972919074,0.193119616131005,0.2257918528081173,0.1630294422228018,0.2096101224478341
Manchester,United Kingdom,0.7431783179322351,0.534874280166064,0.5112160171420919,0.6356384759608946,0.5740633788670149,53.48022215498732,-2.2451764708178805,5123,0.1622512279590375,0.1954433260295257,0.2304319213784248,0.1706695075690382,0.2159181662766944
"Fort Worth, Texas",United States,0.7223157549385274,0.5570002762812544,0.5107274830777732,0.6614043721508496,0.5637864345904131,32.76229978482003,-97.32243057511738,5112,0.1658912024825743,0.1896553059721789,0.2245568754659276,0.1710322814294283,0.213053944343134
Vienna,Austria,0.772064984248274,0.5424123600777532,0.5183993565252363,0.6093697633889671,0.5471797707621154,48.19954063054188,16.377018719211822,5075,0.1525288834531385,0.2053082253189673,0.2311625949421347,0.1702150726405475,0.2186200170745069
Cape Town,South Africa,0.7708333333333333,0.5906988694758479,0.5075668036998973,0.6638874614594039,0.5319929770469339,-33.94602363819096,18.431127718592965,4975,0.1535883264742095,0.1975800166388545,0.2207654738711718,0.1714993377161771,0.2190976929038351
Riyadh,Saudi Arabia,0.7341269841269841,0.533171854600426,0.4748333676905105,0.6241926063354635,0.5742372706658421,24.69005136446331,46.71565166767738,4947,0.1486642270537814,0.1871186147370115,0.2102593806824023,0.1570789050209994,0.1931997502490431
"Dayton, Ohio",United States,0.718548889350218,0.6126954882015085,0.5373719811777732,0.7236220676769773,0.5254221161165318,39.75076043822276,-84.17811389734226,4929,0.1625184008045256,0.185274523746618,0.219962063644978,0.1644864514688677,0.2083426991402548
Cagayan de Oro,Philippines,0.7471608587429994,0.5901178870220564,0.4799747631888267,0.68507571043352,0.5889640807577958,8.484998863914997,124.64799959133632,4894,0.1375452666203847,0.195359037455723,0.190746196735497,0.15022282713926,0.1853094605465317
"Nashville, Tennessee",United States,0.7592461317650354,0.5616510887068543,0.5367613596583352,0.6668810824056571,0.5520461387663655,36.15207162438625,-86.78123105564649,4888,0.1626482986614194,0.1969954268483228,0.2276482864955911,0.1651068508754508,0.2125424405514494
Lagos,Nigeria,0.7570660482245848,0.6070938433743311,0.451384545896741,0.685159127232298,0.504816378291988,6.448118946721311,3.400757897540984,4880,0.1438021204390733,0.1948397432627945,0.1991886183901064,0.1638493034835971,0.203013780149782
Milan,Italy,0.7722874310067771,0.5311342835184797,0.4962490393348703,0.6011318381890589,0.5750410466009921,45.46979024390244,9.189816974789917,4879,0.1435618995705495,0.203648988141029,0.2329921674576624,0.1724963577103603,0.2146320583804633
Petaling Jaya,Malaysia,0.712474794882492,0.5364387776387151,0.4765418578779029,0.6579057154776804,0.5813038868029482,3.101104131638302,101.6153021734673,4877,0.1469229191745321,0.1797794118817025,0.1958116965172323,0.1412011655509418,0.17955270238466
"Ashburn, Virginia",United States,0.7249077976817703,0.5560941341763259,0.5179926238145416,0.6524455567263786,0.5510449596066035,39.03425643076923,-77.50579883076922,4875,0.1660379631701198,0.1902067101515439,0.220088615119375,0.1651933943163263,0.2125233990951483
Islamabad,Pakistan,0.7430855272622644,0.5814586030786937,0.5268126888217523,0.6804416630700618,0.5591731405553159,33.70374073916737,73.05271108751062,4708,0.1462370129687344,0.1886130027784149,0.2053445675552308,0.1462909870193346,0.1867146332351723
Frankfurt am Main,Germany,0.749516458652653,0.5550279176702431,0.5167414787241807,0.6064977008977447,0.5241177651266331,50.11433598118452,8.672835110540944,4677,0.1532065498349874,0.1977381638011005,0.2305410687249357,0.1646231120043725,0.2171311987730068
"Louisville, Kentucky",United States,0.7372130029552171,0.5554576797757066,0.5191947033416685,0.6605289080851708,0.5720713040842615,38.24392822704361,-85.75770238877931,4563,0.16814774281514,0.1915846854508979,0.2242698577867732,0.167934964106009,0.2119197580130357
"Sacramento, California",United States,0.7415147764776477,0.546757800780078,0.5044582583258326,0.664899302430243,0.5655143639363936,38.5809041556145,-121.49076923076925,4524,0.1633193203797719,0.1878704861048094,0.2171208027412996,0.1580193935775165,0.2109446880461982
"Baltimore, Maryland",United States,0.75791761148904,0.5522959183673469,0.5162131519274377,0.6608040438397582,0.5645313681027967,39.298682798317465,-76.61983331857428,4517,0.1576651765457531,0.1945859337898284,0.225599332920122,0.164339142902095,0.2144620183934714
Kochi,India,0.7529932401466545,0.5268484570730216,0.490624045218454,0.6446016651390162,0.5749837687137183,9.918535150622878,76.25582219705548,4415,0.1430696773903086,0.1949850827816316,0.2130039586057915,0.1563486512818756,0.1888604595760962
Mexico City,Mexico,0.7643957944651741,0.5640741604477612,0.5185255363805971,0.6288819574004976,0.5375466417910447,19.414022217184318,-99.15335635910225,4411,0.1459209794882588,0.1896081769914557,0.2191048445972862,0.164894441309964,0.1976644558346316
Athens,Greece,0.7694602382610041,0.5337036822155179,0.5020644774502978,0.5862680823083468,0.5869981434207473,37.98425372013652,23.735008759954493,4395,0.145058655179088,0.1988978387082394,0.2184443576838348,0.1678981570900715,0.2007836488809722
"Milwaukee, Wisconsin",United States,0.7259728773584906,0.561905463836478,0.5298987814465409,0.6798250786163522,0.5606672562893081,43.047281542322615,-87.93410821355236,4383,0.165242807703813,0.1862641295939445,0.2166373476447968,0.1589297077283881,0.2056683032560934
"Tucson, Arizona",United States,0.7387503020053153,0.558790368043811,0.5077263026495933,0.6622070548441653,0.5552619392767979,32.22914544596508,-110.9314469797074,4238,0.1672948542580232,0.1922740876825545,0.2279210360881488,0.1656840108463596,0.2132860426351499
Canberra,Australia,0.7097748239864045,0.5443321599093631,0.5141771870195031,0.6388383102694829,0.549739014323865,-35.2746484348865,149.1105701553166,4185,0.1710599044870973,0.1941070043358474,0.2214203298683521,0.1630715549081931,0.2120086191757621
"Saint Paul, Minnesota",United States,0.7037611616285737,0.5584039895142132,0.5149913983779798,0.6626372163512739,0.5497562873760957,44.966587012048194,-93.10876978313252,4150,0.1717957629346589,0.1821641648020528,0.2162210933998593,0.1557068099349124,0.1999059820713003
Abu Dhabi,United Arab Emirates,0.7155024052417682,0.5855934312017915,0.5274218296425314,0.6678952061043377,0.5349693124326117,24.45419842767296,54.40592982583454,4134,0.1507069394986171,0.1770333674810564,0.19395011268203,0.1550760347670147,0.192980712655491
"Omaha, Nebraska",United States,0.7244710708117444,0.5659974093264248,0.5175464162348877,0.6712165371329879,0.5547333765112263,41.25878265231221,-95.97298881820406,4087,0.1716676735082332,0.1936031672482941,0.225866401646668,0.1632531410362513,0.2105678686788931
Las Pinas,Philippines,0.7527684055714162,0.5647493295267756,0.4786584047062894,0.6654338610606454,0.5931957781815036,14.476815012406949,120.984755955335,4030,0.142582934018414,0.1905079333801334,0.2034506205335089,0.1545662962914057,0.1936671234973042
Jaipur,India,0.7658692437684833,0.5483259400084496,0.5100021123785382,0.6539184621884242,0.5608787494719053,26.952360553892216,75.71067956586826,4008,0.1426542202414196,0.1968355514913132,0.2035839557964745,0.1497223791086386,0.18125235249975
"Raleigh, North Carolina",United States,0.7333765112262522,0.5549708549222798,0.524487262521589,0.6523477979274611,0.550955310880829,35.77199660415611,-78.63335491637102,3946,0.1654428863921754,0.192945482512647,0.2255154047201172,0.1720399523735071,0.2102576123825981
"Madison, Wisconsin",United States,0.7333074868613767,0.5751216938054623,0.5426466787283536,0.6700428620659947,0.548639829413285,43.07020982732351,-89.41201371254444,3938,0.1648688455495937,0.193018484051017,0.2278106126042187,0.1620000766265999,0.2083520620792639
Prague,Czechia,0.7729647604057363,0.5113293546694648,0.4779424623994404,0.5865905911157748,0.5792016439314446,50.0827042809536,14.430982696744424,3901,0.1535863106837674,0.2047429856120813,0.2276983560007089,0.1728109328570025,0.216568957307837
Patna,India,0.7715848253466736,0.5557749692820784,0.4973670352817272,0.6547854133754608,0.5572889239950851,25.59084273815721,85.13483305570016,3842,0.14772152057137,0.2057123353655244,0.2078739493651558,0.1576851467096645,0.1946282098871732
"Irvine, California",United States,0.732669567157519,0.5582385095939313,0.5272255689424364,0.6565428380187416,0.5632697456492637,33.672077322546976,-117.80932241649268,3832,0.1617399475333116,0.1876077507053472,0.2187300398302739,0.1583726673638349,0.2051717629452053
Tel Aviv,Israel,0.7601535495878755,0.5623725959407959,0.5364652574669857,0.6151289550651422,0.5165459097757689,32.080364579512704,34.78056418653394,3817,0.1552671697635514,0.1985051148935178,0.2171107957025681,0.1637783268328375,0.2205647855403383
Bogotá,Colombia,0.7536880100439423,0.5484261501210653,0.4934647116850506,0.6249831853645413,0.552433638238723,4.624567335258598,-74.08205337358886,3809,0.1521147711200213,0.1876471743728367,0.210879952759631,0.1636087108733657,0.2000874752770257
Moscow,Russia,0.7615759408602151,0.4958277329749104,0.4936267921146953,0.5517137096774194,0.5638496863799284,55.75007411702688,37.61642424881392,3794,0.1532906051925443,0.2019883362268102,0.217145750818677,0.1703336503180713,0.2045956808010691
"Detroit, Michigan",United States,0.7609322304256676,0.5737569501412815,0.525914912040835,0.6834153677878042,0.5424585270257952,42.34940492676432,-83.05850974700398,3755,0.1595714364820037,0.1974747879183062,0.2232676105136725,0.1656078262597978,0.2187374405681732
London,Canada,0.732786401597676,0.5727805010893247,0.5314882897603486,0.6609136710239651,0.556616512345679,42.99519725040042,-81.24859369994661,3746,0.1618780067356517,0.1940070563755649,0.2238758527363447,0.1665091043749496,0.2041253452195737
Burnaby,Canada,0.7337868015677697,0.5689317291040015,0.520941573238538,0.6519859174186492,0.5454208823261325,49.25118029490616,-122.98271782841825,3730,0.1603903584181568,0.189110306078654,0.2170968906298393,0.1541745556779321,0.2038995996968892
Scarborough,Canada,0.7197962154294032,0.5858635826055313,0.5173705877001455,0.6754059770742358,0.546204057496361,43.77403818474758,-79.24220088614393,3724,0.1552057003872469,0.183312079532786,0.2105442159413349,0.1564979675527727,0.1931200876632994
"Cleveland, Ohio",United States,0.7359900875979714,0.5662747810050714,0.5259739511295528,0.6736917934532043,0.5529910096818811,41.48400194805195,-81.65795254329004,3696,0.1645528551380532,0.186844351912324,0.2231705530398899,0.1629966927216207,0.2122003472735774
"El Paso, Texas",United States,0.716061733595432,0.5569830571936722,0.5020768978751287,0.6744418702611626,0.5665777403351119,31.76488765331153,-106.460629108749,3669,0.1646801074335774,0.1816869924117084,0.2172617494323185,0.1706514673402416,0.2025377672861954
Lisbon,Portugal,0.7728445870535714,0.5326392764136905,0.5003662109375,0.6298304966517857,0.5659354073660714,38.73278702540289,-9.137902338158971,3661,0.145597072276262,0.1857145450822728,0.2219391617425189,0.1610385376596033,0.2060501295699205
"Riverside, California",United States,0.7371960592509782,0.553381777529346,0.514247950437861,0.6692868455375443,0.5633966834358114,33.94936356610543,-117.4038422577974,3623,0.1617481417865864,0.1838487567449482,0.2222174121486348,0.1589749551706249,0.205854160129505
Amman,Jordan,0.7423455056179775,0.6072097378277154,0.5492216760299625,0.6587020131086142,0.5068703183520599,31.955488830522533,35.94262681780481,3617,0.150160427749051,0.2007943448939589,0.2093275049609512,0.1658608165183251,0.2142467751778789
Glasgow,United Kingdom,0.7527006172839505,0.5248278727445393,0.503988603988604,0.6278786799620133,0.5933641975308642,55.8667295935412,-4.261644927616927,3592,0.1591165710345582,0.201747071178677,0.2309276343422021,0.1754351809996196,0.217338362259006
Vilnius,Lithuania,0.7480649233114223,0.5277281604267886,0.4929860912641707,0.5887694103077069,0.582344955701629,54.69209487036521,25.28180270420965,3587,0.1500647108594922,0.1958217629083035,0.2206152567473232,0.1660845028693324,0.2010650007563091
Dhaka,Bangladesh,0.7609757276859105,0.5395331689391741,0.4554806111594623,0.6509706508074655,0.5850195822454308,23.767202097902096,90.3997918041958,3575,0.1510628845015634,0.2050638357647261,0.2161848060894731,0.1612589072743765,0.1846334100151476
Rotterdam,Netherlands,0.7566049290141972,0.5520520895820836,0.5604191661667667,0.6375474905018996,0.4963257348530294,51.91649894459104,4.484803814130753,3411,0.1516847928776612,0.193726583105416,0.2166914453576028,0.1582636328470612,0.2121519404503178
Navi Mumbai,India,0.7701649175412294,0.5656984007996002,0.4973450774612693,0.6669602698650675,0.5666291854072963,19.118048697454118,73.0198962107756,3378,0.1411056526539487,0.1952671879225286,0.2123711507852923,0.14936239086296,0.1813833758240108
Christchurch,New Zealand,0.7434491163924436,0.5367915904936015,0.5137365427584806,0.6443098720292505,0.5570726691042047,-43.53263090692124,172.59889418257757,3352,0.1611468706258073,0.1940565210311284,0.2225429286317823,0.1605172240237181,0.2136408226585608
"Jacksonville, Florida",United States,0.7424488010702891,0.5550774415972007,0.5064191622928887,0.6646084182360811,0.5540611814345991,30.320621796407185,-81.6526458982036,3340,0.165974568490936,0.1952517554962042,0.2283670142121023,0.1715041607956108,0.2174066991789344
Sofia,Bulgaria,0.7855369691414604,0.5418767186067828,0.5216098889907322,0.592206436500662,0.5612396883593034,42.69365626690712,23.34223171024947,3327,0.1445311947544606,0.2048651402039809,0.2180203357302931,0.1691874159391246,0.2070579152916412
"Albuquerque, New Mexico",United States,0.7497919916796673,0.5576963078523142,0.497549401976079,0.6599063962558502,0.5596073842953718,35.08821478915662,-106.64609373493975,3320,0.1658991249560712,0.1957617824377329,0.2238259511511825,0.1670776440179739,0.2188707896206
Iloilo City,Philippines,0.755443115608709,0.5631644178677297,0.4774097924971889,0.6700781968721251,0.6037386282326485,10.703759024833431,122.56023140520897,3302,0.1357683799412494,0.1738539605616878,0.1917053568512223,0.150081704405338,0.1762727385552763
Hamilton,Canada,0.7194947325355426,0.5707336094916641,0.5280505267464458,0.6579344379666565,0.5460775288943439,43.24720565693431,-79.88505334549879,3288,0.1609397346322094,0.183051702113193,0.2199062958590305,0.1558816446325676,0.2026536485871892
Kathmandu,Nepal,0.746738345709571,0.5346534653465347,0.467396349009901,0.6415918935643564,0.5800265573432343,27.697556459036512,85.33146652347347,3259,0.1356065155224503,0.1836339068310856,0.2002253482588125,0.1453641987532961,0.1741328333620066
Gothenburg,Sweden,0.7365231259968102,0.5531366294524189,0.5405369484316852,0.6241161616161617,0.5167995746943116,57.70607631333541,11.968462542741683,3217,0.1667564285682761,0.1992265250454717,0.2298915448885274,0.1738854909288066,0.2198866135400559
"The Bronx, New York",United States,0.7492436520799567,0.557590491626148,0.5055713128038898,0.6634792004321988,0.5587722852512156,40.85495920475893,-73.88175025046964,3194,0.158319152742195,0.1932876613344248,0.2184903705012022,0.1656008978839272,0.2077634981680952
Copenhagen,Denmark,0.7448722079037802,0.5606743986254296,0.5536404639175257,0.6331279531786942,0.5121483032646048,55.672903383458646,12.575815852130328,3192,0.1616522781412623,0.1936003929782827,0.2245191726635589,0.1686872869859538,0.218614658131471
Subang Jaya,Malaysia,0.6933073165551661,0.5376513220770947,0.4847815121588616,0.6617221514282681,0.5819329404268876,3.059604056275688,101.58041119190642,3163,0.1471152442770853,0.1713641484142323,0.193470091264592,0.1392923805596647,0.1805985064246809
Santiago,Chile,0.7683755822771097,0.53749593760156,0.4641087097822554,0.6101993283501246,0.5649780630484238,-33.451964974619294,-70.65377763324874,3152,0.1499474710639809,0.2004350080005944,0.2213117630305394,0.1685394227843799,0.2029673274198948
Kitchener,Canada,0.7270313184406483,0.5679136552781429,0.5211686925098554,0.6602811541830924,0.5596049605781866,43.42637416985952,-80.48868218390804,3132,0.1607286933917642,0.1940554083171032,0.2187354792148876,0.1633452137049698,0.2071428561371251
Tbilisi,Georgia,0.7623109174613614,0.526074208045599,0.505508056560342,0.5666104899704044,0.5880261427162118,41.69597152061856,44.831956282216495,3104,0.1504037447063918,0.1951366368629405,0.2048842204406729,0.1684075141482006,0.188481494085631
Taguig,Philippines,0.75648987355936,0.5747874006937451,0.4839571444556338,0.6727788967214949,0.5909421506098244,14.531271074110348,121.07008847535096,3063,0.1377611571080753,0.1817109360753493,0.2016369404628864,0.1490995387685743,0.1888209002067403
San Juan Pequeno,Philippines,0.7561942729766804,0.5666580932784636,0.4781521490626429,0.658414780521262,0.5967292524005487,13.6203,124.3153,3030,0.1384452470140542,0.1851557761652087,0.1990196145464686,0.1539898791231758,0.1893106964049192
Victoria,Canada,0.7673669585719097,0.5552795554058606,0.5222647917368363,0.6497417761311328,0.5557988099247783,48.396501592568015,-122.7764804578633,3014,0.1555332304303772,0.1907760617479055,0.224585108327783,0.1603636866288384,0.2118980659485387
"Richmond, Virginia",United States,0.7647764712565326,0.5710988979777324,0.5307316518972961,0.6793200408997955,0.5474892069984094,37.54222926504822,-77.46544516129032,3007,0.159794372731572,0.1957884742326348,0.2177840244639518,0.1624972502568489,0.2145436264816576
Richmond Hill,Canada,0.7034009850543478,0.5474765058876812,0.5094967164855072,0.6418350883152174,0.5695482336956522,43.876651997336886,-79.43566444740345,3004,0.1654856000432041,0.1914150935689749,0.21681479042599,0.165563375048615,0.1959807149817147
Barcelona,Spain,0.7625,0.5407845668387837,0.5258462421113024,0.6248207114170969,0.5419463568559955,41.38738876666667,2.1709114300000003,3000,0.1550792148016082,0.1927914145677118,0.2220567571014194,0.1601082719294493,0.2059575554224194
Kuching,Malaysia,0.6962876206700739,0.5397501419647928,0.4619676320272572,0.6630039750141965,0.5950525269733107,1.5491759839088166,110.3335821991284,2983,0.1413528691182684,0.1722437469712904,0.1848479585831887,0.1336849306627602,0.1762588978169296
"Memphis, Tennessee",United States,0.7432559689383402,0.560826668984701,0.5139082058414465,0.670121986555401,0.5541405887807139,35.149421772834515,-90.03035284799462,2967,0.1682280228861,0.1925367954143341,0.2260750684096076,0.1683447616815027,0.2137035946652448
Tehran,Iran,0.7646913795103841,0.5431242023436593,0.4640692075646827,0.5758063580461771,0.5419204664114167,35.72336156196944,51.42193005093379,2945,0.1440269457825155,0.1952409388771739,0.208995733562772,0.1635098552422004,0.1906168950754956
Zurich,Switzerland,0.7611515736515737,0.5640721890721891,0.5275389025389026,0.6130806130806131,0.5083289458289458,47.37307167641997,8.54441626506024,2905,0.1509330137623163,0.1987000526987721,0.2281108128782216,0.169327061015368,0.2179926725212476
Bacolod City,Philippines,0.741194996451384,0.5673867400047314,0.4690605039034776,0.6787541400520464,0.6069316299976343,10.669719915848528,122.94712489481068,2852,0.1371033812681909,0.1807337948679507,0.1863778039697766,0.1489884776386031,0.1757620410425633
"Colorado Springs, Colorado",United States,0.753280598479274,0.5685936350257542,0.5056030782438068,0.6672185430463576,0.5544058130978661,38.84389982369535,-104.79992859661496,2836,0.1612290233122035,0.1894500260377942,0.2269093803731557,0.1625451218674422,0.2156390346584978
"Rochester, New York",United States,0.7243158978084514,0.567751846470517,0.5201068531299189,0.6719185131371838,0.5542589901925172,43.14696049469965,-77.61015282685513,2830,0.1689923691293796,0.1873582357033441,0.2245156036280374,0.1579671124860525,0.2079894455936566
"Newark, New Jersey",United States,0.7311602870813397,0.5521791804686541,0.5186020120230647,0.6676481413323518,0.5635198135198135,40.73084909349449,-74.18915062211163,2813,0.1617843111451502,0.1877347404931673,0.2231140765861284,0.1608704476812427,0.2105523125286788
Sheffield,United Kingdom,0.750282253142927,0.5251434151104601,0.5134260954473331,0.6370606005126327,0.5801141218113024,53.380528967254406,-1.4599296365599137,2779,0.160942460225422,0.1912593345884736,0.2298779627045068,0.173194132254874,0.2113513057348571
Sharjah,United Arab Emirates,0.7154301475145656,0.5766703855212595,0.5166108838477749,0.6790396058014132,0.5555891285484071,25.341191792656588,55.4223777537797,2778,0.147875117776307,0.1683664760617823,0.1886241296352033,0.1530596393396001,0.1738552834626223
Brussels,Belgium,0.7615262931564075,0.5226916697382971,0.5121252610885858,0.621006880452144,0.5452681533357906,50.85330897620764,4.353631294160058,2774,0.1498604196830149,0.2032757905228396,0.2277431886080206,0.1633449069987056,0.2140658001415314
Caloocan City,Philippines,0.7572301171777611,0.5588693592620294,0.4736661680378957,0.662085514834206,0.6040887559212166,14.63387946493131,120.97048734634852,2766,0.1385189269562914,0.1851109865680445,0.1946837949121959,0.1534737730264082,0.1851755234760567
Munich,Germany,0.7600649350649351,0.5487322201607916,0.5172773654916512,0.6050943104514533,0.5328617810760667,48.14706299927378,11.572275780682643,2754,0.1516110431552894,0.1947047228297739,0.2244821811652615,0.1681835286579477,0.2194955828045355
Leeds,United Kingdom,0.7394515749007936,0.5205233134920635,0.5142376612103174,0.629456535218254,0.5812794518849207,53.79317438890915,-1.5497566625319228,2741,0.1678150046986548,0.1947805326856206,0.2253120366642883,0.1674807217243549,0.2118015780616407
Bristol,United Kingdom,0.757081471829238,0.5332433606353935,0.5186693348225366,0.6322831347728965,0.5707681806899975,51.45496817518248,-2.5908862554744525,2740,0.1563479475633503,0.1933981239291326,0.2333927732730679,0.1669151306670702,0.222155144039844
"Oklahoma City, Oklahoma",United States,0.7369684177611007,0.5562851782363978,0.5084193245778612,0.6731003752345216,0.5636100687929956,35.469267117281696,-97.5205906101571,2737,0.1686008773166207,0.1930450916840223,0.2314641897699439,0.1631948651322445,0.2099833129500616
Jeddah,Saudi Arabia,0.7384276495408291,0.5287835070737156,0.4771034996276991,0.6274199553239017,0.57359921816828,21.485277802197803,39.19178410256411,2730,0.1546558887513587,0.1887882718179536,0.2075052044442842,0.1642977198424852,0.1914363752684552
Shah Alam,Malaysia,0.7095408355287919,0.5418156442102622,0.4750188182160331,0.6568184669426672,0.5823218542215531,3.0893808529411766,101.53386930147056,2720,0.1442056516592522,0.1798326617995057,0.1978496429561178,0.143166842349646,0.1852927876413396
"Tacoma, Washington",United States,0.7546508664627931,0.5539468654434251,0.5029784658511723,0.6591010448521916,0.5591790902140673,47.2424111521418,-122.4512064254062,2708,0.1544657940883102,0.1894453596606365,0.2274530091365986,0.1626829343878349,0.215464522083959
"Buffalo, New York",United States,0.7436127260981912,0.5685885012919897,0.51031169250646,0.6747012273901809,0.5591327519379845,42.91026778970752,-78.84216767863754,2701,0.1638490956934316,0.1922667901534678,0.2230273255069275,0.1683211576971758,0.2177177460727187
Bogor,Indonesia,0.7395515993907082,0.5559231403909622,0.480499492256918,0.6245319243462808,0.5861338537699924,-6.594646577380952,106.79158816964284,2688,0.1363246384970683,0.1900184887283444,0.1958916884072513,0.1392568584331108,0.1896030854797269
"Oakland, California",United States,0.7575735856269113,0.5439522808358818,0.5229755988786953,0.6525388634046891,0.5511993501529052,37.79746787043931,-122.23353276247208,2686,0.1620677239728019,0.1854530794102302,0.2193499500904831,0.1587157990994893,0.2107725631677985
Wellington,New Zealand,0.7492275192331945,0.5451743599445075,0.5152840837432211,0.6385105309622903,0.5607343296758733,-41.30264587840358,174.76576948899665,2681,0.1571640698740078,0.1884517558580553,0.2189489154533219,0.15931314996162,0.2107320803469997
Liverpool,United Kingdom,0.7474907300856668,0.5270026211481907,0.5180443677279121,0.6436916634701445,0.580664237309807,53.41186530229065,-2.974718666917011,2663,0.1630142801326029,0.2023785183879532,0.2278241417664905,0.1707206972066826,0.2123333731281364
Rome,Italy,0.7778877091377092,0.5313545688545688,0.4855936293436293,0.5891972329472329,0.5819658944658945,41.88451491294474,12.503190878122634,2642,0.1519897343706074,0.2046464001962281,0.2318783326026677,0.1795075717201345,0.2170858593928114
Marikina City,Philippines,0.7543034105534105,0.5638674388674388,0.4794321106821107,0.6615508365508366,0.6028716216216217,14.647783314372392,121.11910015168752,2637,0.1381481035645066,0.1955612637594297,0.2017901025201524,0.1543602049171112,0.1958465810604411
Lima,Peru,0.7644155970439518,0.5200149098923894,0.4762333074030856,0.6094580578244523,0.559469402307792,-12.043347260273972,-77.02833184931507,2628,0.1449726916695659,0.1889253684631698,0.2120243039829708,0.1673538578244088,0.1945425814856581
"Columbia, Missouri",United States,0.7046483622350674,0.5614081567116249,0.5492694283879255,0.6709938985228003,0.5543272318561336,38.9449855945122,-92.33788448932928,2624,0.1685284830733156,0.1845112138382001,0.2258614422369294,0.1618428213857033,0.2081262808553594
Medan,Indonesia,0.7274676375404531,0.6005825242718447,0.497378640776699,0.634668284789644,0.5431634304207119,3.584805477463713,98.66295332314743,2618,0.1379734263340171,0.190399777235879,0.190714106762742,0.1350556565862856,0.2019164031107259
Saskatoon,Canada,0.7188152571130253,0.5462509788566954,0.5011338423388149,0.6491614460976246,0.5693764682850431,52.127331738131694,-106.65094800918835,2612,0.1661929362487659,0.1848101612235458,0.2211903884131567,0.1581558229217085,0.2044382046541313
Jakarta Pusat,Indonesia,0.7402333464981569,0.5553498551869405,0.4685854397051079,0.6203182596103212,0.5863365587151133,-6.183124468496328,106.8266764592192,2587,0.1413025068993253,0.1843938359216781,0.195757872249269,0.1424475092185715,0.1862397575431671
"Tallahassee, Florida",United States,0.7329710144927537,0.5647809617918313,0.5407608695652174,0.6684453227931489,0.5445075757575758,30.46413468433359,-84.29711964146531,2566,0.1655102076401109,0.1882881048552647,0.231877419247748,0.1646462354402344,0.2093613240455716
"Honolulu, Hawaii",United States,0.7409755770263017,0.5619883923778851,0.5148450080515298,0.6663982823403113,0.547873054213634,21.314688267716534,-157.8443324409449,2540,0.1637271328893581,0.1800711416815269,0.2213586465913809,0.159445299380727,0.2074915657677753
Beirut,Lebanon,0.7508073644959382,0.5750848981222533,0.530313623651618,0.6478142895192436,0.5655546677320549,33.89224818754925,35.503787312844764,2538,0.1558262867339081,0.1904360517182777,0.2120458799469016,0.1641810267774552,0.1926515298450154
Buenos Aires,Argentina,0.7680202875184737,0.5264762192664248,0.4871439607685073,0.5932335751713019,0.5715857181244123,-35.68412800157978,-59.63047962085308,2532,0.1456434573132041,0.200633056272824,0.2273780993065738,0.1685694087497778,0.2065939333875094
"Long Beach, California",United States,0.7388368894256575,0.561736782071927,0.5135030864197531,0.6733930488459474,0.5710295893719807,33.79035304347826,-118.1592814229249,2530,0.16361921591621,0.1837048733228788,0.2188257926191917,0.1573926821122978,0.2028341108376313
"Boise, Idaho",United States,0.7352508123476849,0.562677701056052,0.5236427024099648,0.6614879501760086,0.5482500676956404,43.61506152927121,-116.22669526085224,2511,0.1641670456560167,0.1916914083462674,0.2215713326359456,0.1645076953560399,0.2165829690572662
"Katy, Texas",United States,0.7342082467082467,0.5520963270963272,0.5076056826056826,0.6498094248094248,0.5679487179487179,29.75762688172043,-95.8194414974114,2511,0.1594503538093012,0.1962550337618212,0.2324098439718416,0.1721443044476599,0.2117699140361804
Ankara,Turkey,0.7924363711001642,0.4873169813902573,0.4967928981937602,0.5449421866447729,0.5783045977011494,39.94031623246493,32.833842404809616,2495,0.1472768072780665,0.2159689758615675,0.2287502720112234,0.1816427632763726,0.2035225126608325
Blackheath,United Kingdom,0.750438868236266,0.5598409748038001,0.5537914773509569,0.6301201294231034,0.5468986644637203,51.50083285946385,-0.0399739236393176,2462,0.160781916240929,0.1934070848188159,0.2190973460669869,0.1652274991052364,0.2161387789168317
Krakow,Poland,0.7641576501595227,0.4865445970314884,0.4688583714800943,0.5673203634345956,0.6090130392564849,50.05905745631857,19.934754937017477,2461,0.1586262133715299,0.2136201358387254,0.2364396257066569,0.1841154549961277,0.215855627879574
Kingston,Jamaica,0.7155649540517962,0.5717853661932609,0.4498833890281258,0.6999878167641326,0.540213380673907,17.996182340862426,-76.80166587268994,2435,0.150728217064232,0.1886574337892688,0.2015701054674552,0.1533670334660198,0.2047271779244165
"Knoxville, Tennessee",United States,0.7056000712250713,0.5584045584045584,0.5195690883190883,0.6617165242165243,0.5631855413105413,35.95276220275344,-83.9544395494368,2397,0.1756175623622427,0.1919765193948823,0.2232573976091643,0.1674363920355173,0.211581519810477
"Mesa, Arizona",United States,0.7264547413793103,0.5571120689655172,0.5122395833333333,0.6648527298850574,0.5533854166666667,33.41701306532664,-111.8065763400335,2388,0.1702457095944338,0.1891664816418418,0.2262435082322118,0.1644898427642066,0.2100711520938628
"Spokane, Washington",United States,0.7435110773240661,0.5660023892267594,0.4997284969591659,0.6646394439617723,0.566988850275123,47.67603677581864,-117.40776784214944,2382,0.1674714816638549,0.1905559527667819,0.2291471622264063,0.1659261008328177,0.2112621564561785
"Fort Lauderdale, Florida",United States,0.732404772329247,0.5648533274956217,0.5307209573847053,0.6661923525977816,0.5384194395796847,26.13213324937028,-80.1714429890848,2382,0.1605343962990054,0.1867806810543485,0.2168982965526256,0.1692422721431861,0.210184193033899
Bekasi,Indonesia,0.7362067728511982,0.5600875304921796,0.482305567513273,0.6227041182379108,0.5921043191275649,-6.235228768907563,106.99190873949578,2380,0.1363433069498895,0.189649888201147,0.2008131986256609,0.1403972973365497,0.1848859629931248
Rio de Janeiro,Brazil,0.7795626349892009,0.4841972642188625,0.4445284377249819,0.5763588912886969,0.5959863210943124,-22.91824778012685,-43.1017,2365,0.1445671120044242,0.203134877393609,0.2347028433588283,0.1802615564540966,0.2131255564540843
Yogyakarta,Indonesia,0.7453167453167453,0.5568514943514943,0.4668239668239669,0.6252413127413128,0.585085085085085,-7.803427360406092,110.36459162436547,2364,0.1375835672230941,0.1877951534277734,0.1994413296864512,0.1383884780901541,0.1934391203505128
Halifax,Canada,0.7524218524920773,0.5530556755978104,0.5199420195908959,0.653251944684529,0.5680819648516278,44.65315892327257,-63.6034042814752,2359,0.1609736456894986,0.1933176092459916,0.2192018227563575,0.1650434464623426,0.2118107075583849
"Birmingham, Alabama",United States,0.7324580598103574,0.5667304886943837,0.5196845368344275,0.6666484318016047,0.5596371261852662,33.495279113384484,-86.8038884910486,2346,0.1714683206916276,0.1961327231634838,0.2248991738786549,0.1675944685088903,0.2169460103462262
Bratislava,Slovakia,0.7660277295105705,0.528037214016797,0.4943074862438459,0.6133072690414132,0.557486243845931,48.18079718189582,17.044111742100768,2342,0.1513050669205803,0.1992718023454523,0.2284693222810638,0.1733943291625758,0.2142576614304614
"Auburn, Alabama",United States,0.67939364461738,0.6082558726041216,0.5778390257962243,0.6817985300475573,0.5068453667675458,32.55893672680413,-85.47874325601374,2328,0.164111512542772,0.1769109217465308,0.2173445500909135,0.14485024972368,0.1914189996608545
Nottingham,United Kingdom,0.7345780447265036,0.5334598821396193,0.5121165760048353,0.628239271683288,0.5764487005137503,52.95401824470385,-1.1585063251188932,2313,0.1677732570338517,0.1945601567974731,0.2275754784334628,0.1679453433463378,0.2121699325356522
General Trias,Philippines,0.7508296047725578,0.5663777032065623,0.4662658463832961,0.6721942580164058,0.6014541387024609,14.3842,120.884,2310,0.1401952501256075,0.1767473322974937,0.1859460189688937,0.1531753610110627,0.1793576694127922
"Durham, North Carolina",United States,0.748160677314404,0.5721864832889677,0.5264991866311742,0.649382579118604,0.5357050428867199,35.98654389926183,-78.90507490230135,2303,0.1632386156490379,0.1972719724785969,0.2255850358195049,0.1724656584764744,0.2159122388370397
"Tulsa, Oklahoma",United States,0.7406798245614035,0.5546733212341198,0.5194721718088324,0.6584335299455535,0.5643148820326679,36.13263899782135,-95.96754557734204,2295,0.1642704016072028,0.1888943883741049,0.2238194750655378,0.1625716794874308,0.2118133439111902
Pretoria,South Africa,0.7620741819811744,0.5775437023756164,0.4873095024652622,0.6642480950246527,0.5319083370685791,-25.75918645558487,28.25796635883905,2274,0.152726291017327,0.1962765417392724,0.225921088013744,0.1710404088749015,0.213552670788766
Malmo,Sweden,0.7379050405040504,0.5571182118211822,0.5443294329432943,0.6338883888388839,0.5239742724272427,55.60401069542253,12.99240264084507,2272,0.1626475142793198,0.1925639812247827,0.2252917514359643,0.1646681679233556,0.2178885647764042
"Virginia Beach, Virginia",United States,0.7366790932369333,0.565907892754933,0.5213793492995933,0.6717314354571472,0.5564185118240699,36.8400939126599,-76.02371927657698,2267,0.1639031671458584,0.1868672686534354,0.2218776131900172,0.1648634316562085,0.2127910970217138
Doha,Qatar,0.7363014981273408,0.5501779026217228,0.5029588014981273,0.6553370786516854,0.559250936329588,25.292407856191744,51.5321321349312,2253,0.1489600341512223,0.1925597315728728,0.2084696425791059,0.1620549248619659,0.1918150249568783
Tallinn,Estonia,0.7468526547999392,0.5298284649322988,0.4982979613570668,0.6021508443633045,0.5502814544348091,59.43804700625559,24.737274754244854,2238,0.1574575956443654,0.1899288550787069,0.2208081926561866,0.1692200519438533,0.2144984667399377
Taipei,Taiwan,0.729176197011284,0.5354433516315951,0.5023254040866117,0.6262865965233303,0.5446782555657212,25.048721997300945,121.53530805218172,2223,0.1566326674020649,0.1864551234194065,0.2052589541381927,0.1535444069676098,0.2019278038151495
"Lubbock, Texas",United States,0.6972338447233845,0.561386176971951,0.5206686812335347,0.6683325584999225,0.5605241748024175,33.577395768880805,-101.86765909918108,2198,0.1666457347142325,0.1799451559343445,0.2225592864626675,0.1649011664671954,0.1989356432735497
"Lincoln, Nebraska",United States,0.7071159283694628,0.5553821080741439,0.507088438579956,0.6641238611372918,0.563246151429469,40.79523005489479,-96.67107218664226,2186,0.1757485238317293,0.1835804333679103,0.2204701536355899,0.1610807272595218,0.2033091323509558
Riga,Latvia,0.747578197945845,0.5258033769063181,0.4792055711173358,0.5870487083722378,0.5814270152505447,56.95007340082834,24.099377864703172,2173,0.1527312177232508,0.1848913882321966,0.2203771887364013,0.1673923771034328,0.198139227763785
"Alexandria, Virginia",United States,0.7463785230672335,0.5619981105337742,0.5195835301527318,0.6482542119351283,0.545504644937805,38.79423701657458,-77.09109452117863,2172,0.1560536404218497,0.1948399733873222,0.2190472207772886,0.1585425792052432,0.2086590441094378
Seoul,South Korea,0.7221436429357222,0.5142621404997643,0.4896962910576771,0.5782256797108283,0.5533651579443659,37.55916946494465,126.99177647601476,2168,0.1717066486735251,0.1928747824927939,0.2139954755930313,0.1701811744645341,0.2011264366583367
Edinburgh,United Kingdom,0.7568075117370892,0.5406983568075118,0.5153071205007825,0.6322672143974961,0.5705985915492958,55.95364540839871,-3.2004232210429167,2167,0.1562906532416792,0.1985050587850355,0.2243887397176707,0.1651440733808583,0.2089801927265754
"Columbia, South Carolina",United States,0.722309616005163,0.568762100677638,0.5381473862536302,0.671446434333656,0.548533801226202,34.029838632162665,-81.01393544362293,2164,0.1680332554234527,0.1873594550508505,0.2259854426206651,0.1658216387598776,0.2125622678879548
Indore,India,0.7699343339587242,0.548516651031895,0.4996384459036898,0.6548721857410882,0.5674054096310194,22.71714749768304,75.83418697868396,2158,0.1417260238105984,0.1991036373449348,0.2138067362199313,0.1520235152483422,0.1813782880142329
Macquarie Park,Australia,0.7376057330827067,0.5522497650375939,0.5135397086466166,0.6479479949874687,0.5529546522556391,-33.78373218923933,151.1220120593692,2156,0.1607514965388407,0.1951789877296203,0.2232468560341253,0.1593088673527238,0.2066508014654269
"Aurora, Colorado",United States,0.740986268705805,0.5603519158033218,0.5163213287288274,0.6667283341555664,0.5556035191580332,39.7051280809031,-104.8177730479774,2126,0.1582885405042619,0.1859704223306006,0.2230815097832717,0.1566932414510083,0.2033243674159802
"Gainesville, Florida",United States,0.7590817252185387,0.5675923635164111,0.5305438726702952,0.6533687943262411,0.5546346693056243,29.6453617522374,-82.36257588318416,2123,0.1612737167156221,0.1966741929293916,0.2316819881783931,0.1638967667299623,0.2175740137307521
"Grand Rapids, Michigan",United States,0.7325987475915221,0.5625100353243416,0.513728323699422,0.660394588953115,0.5618175979447655,42.96466482530689,-85.65384905571294,2118,0.1666626875526113,0.1911163959655848,0.2253467427833324,0.1609218481514351,0.2051390522457738
Kuwait City,Kuwait,0.733243419977113,0.5501471309465424,0.4864721268595716,0.6433402811835867,0.5661782736635605,29.3650020505484,47.98808574153553,2097,0.1550427835408932,0.1911124192179263,0.2075048318973838,0.1647367416680326,0.1938279273752381
Hamilton,New Zealand,0.7044814446653413,0.5544855864811133,0.5164015904572564,0.6541790921139827,0.5615059642147118,-37.78558477326969,175.27556835322196,2095,0.1669417617407524,0.18239763679408,0.2193304598246561,0.1620144140260036,0.2098380412503155
"Bellevue, Washington",United States,0.7398884680134681,0.5727062289562289,0.5144886363636364,0.6580071548821549,0.5388047138047137,47.60082692678227,-122.18070173410403,2076,0.1566648003537389,0.189535786050967,0.2168612915469834,0.1601840824819967,0.2129368809965331
"New Orleans, Louisiana",United States,0.758175630810093,0.5649692895086321,0.5593563247011952,0.6647161354581673,0.5457856075697212,29.95264389183969,-90.09197498792854,2071,0.1617402498037096,0.1975984671190804,0.2253432496151176,0.1563141016205437,0.2115382682654294
Ludhiana,India,0.7722856324660448,0.5766650302732778,0.5110047455408281,0.662749549991818,0.5556680576010472,31.004649419729205,75.94617088974854,2068,0.1364291255549705,0.1922043794085163,0.207641300530621,0.1499408301781307,0.1835617362163411
Nagpur,India,0.7704226219812715,0.565272301626417,0.508922704123542,0.6635452603909971,0.5536799737144735,21.1162304748062,79.07067034883721,2064,0.1345479673805442,0.1964520005446104,0.2060852242126354,0.1449977030851587,0.1783876126735808
Batangas,Philippines,0.74255731486063,0.5715198746495135,0.4894750948375391,0.6893864423552697,0.6023936170212766,13.757399216837984,121.06359725893292,2043,0.1325047628716701,0.1719149463934757,0.1774870394899485,0.1429166948487275,0.169072569978348
"Santa Ana, California",United States,0.7227916666666666,0.5471666666666666,0.5016770833333333,0.6665104166666667,0.5846666666666667,33.744491225490194,-117.87831397058824,2040,0.164518109797821,0.1803543193464469,0.2196623884739014,0.1617176298750364,0.2021015428637919
"Des Moines, Iowa",United States,0.7118161094224924,0.5557244174265451,0.5137833502195205,0.6603343465045592,0.5630699088145896,41.59574261893084,-93.6328921530162,2039,0.1705964319807936,0.1897718397740842,0.2239353164195202,0.1607963896009445,0.2124066043261609
Gold Coast,Australia,0.7024384704327716,0.5964857945160225,0.5867195242814668,0.6674822431450281,0.5084138586058804,-28.039328860384806,153.39444864331526,2027,0.168609713614894,0.1848803743346885,0.2166954504299144,0.1644295949460526,0.2000070632369509
"Fresno, California",United States,0.7303171017402945,0.5555450970548862,0.4921247489959839,0.6742595381526104,0.5682207998661312,36.771485982231,-119.76285187561696,2026,0.1655800775565474,0.1814556761679972,0.2188230382238797,0.1607960479685371,0.2134525056409305
Bacoor,Philippines,0.7514873254009312,0.5611958958441111,0.4692403862734954,0.6712256423521297,0.607874202448698,14.45597981197427,120.9401655121227,2021,0.1421103610748513,0.1803979422044086,0.1980818540540419,0.1495887382198066,0.1791742280879995
"Logan, Utah",United States,0.6952573158425832,0.6115560881264717,0.5607025731584259,0.6832008913555332,0.4907711066263034,41.75980376051459,-111.81750826323602,2021,0.1659705965889524,0.1760536756011702,0.2246513228981942,0.1489295956029356,0.2045867994456033
"Spring, Texas",United States,0.7264992408906883,0.558535762483131,0.5117767375168691,0.6531819331983806,0.5612875337381916,30.10212763744428,-95.45655631500742,2019,0.1719831166671641,0.1979903279762809,0.2253413854310346,0.1770457240050566,0.2150531792337003
Tokyo,Japan,0.7539161192521475,0.5031581606872157,0.4767033013306384,0.5957343776318005,0.561826259053394,35.68378021814576,139.69051774913237,2017,0.1620162379432147,0.1883573315629601,0.216435562865813,0.1663139774951121,0.2058933679990509
"Cambridge, Massachusetts",United States,0.7624724482875551,0.5740929128518142,0.5368981010512038,0.6416369955917259,0.5447397422855205,42.3703429280397,-71.10873250620347,2015,0.1637523217866016,0.1946351336264915,0.2252832338843523,0.1587261293383328,0.2193630454046085
Frederiksberg,Denmark,0.7466782765737874,0.5516425868593051,0.5593717750257998,0.6363304093567251,0.5193498452012384,55.67957488653555,12.54236858295512,1983,0.1658538113625209,0.1935929427769981,0.2255796624330652,0.1665703585708925,0.2144087958712283
Guwahati,India,0.763597287022637,0.5080460514947296,0.4369383964057369,0.6390940902021773,0.6080222913426646,26.12062447516641,91.65238591909882,1953,0.1361588019601056,0.1875979897522778,0.2024456547674419,0.150045486620524,0.1801540782098646
Kyiv,Ukraine,0.7652785110876452,0.5112966385075678,0.4905513023583245,0.560289070749736,0.5653929074269624,50.455214856557376,30.52687981557377,1952,0.1523517360494826,0.1992530086308822,0.2175276839763743,0.1608104495851335,0.1969127570030618
"Baton Rouge, Louisiana",United States,0.7543324491600354,0.5512709991158267,0.5103890362511052,0.6541335101679929,0.5562997347480106,30.438018737166324,-91.16836103696096,1948,0.1640435725670546,0.1990873254912055,0.2284252056301112,0.1733232277151491,0.2223044714670708
Tangerang,Indonesia,0.7317270658263305,0.5574120273109243,0.4807422969187675,0.6132374824929973,0.5778514530812325,-6.178566287332647,106.62826694129764,1942,0.1393049300922835,0.1892582387903638,0.199783569907239,0.1459248378068608,0.1954731814777899
George Town,Malaysia,0.7086736037934668,0.5346966104671584,0.4608359676852827,0.6574025289778714,0.5819393220934317,5.418247516848108,100.33268906169,1929,0.149871829390996,0.186253368036674,0.196982915316177,0.1463202042164267,0.1842972513514486
"Bakersfield, California",United States,0.7226369802677942,0.557104474982382,0.4960469520789288,0.6782395172656801,0.5749867864693446,35.36116026970954,-119.03125140041494,1928,0.1620804548474573,0.1895054635322193,0.2145280755112245,0.1616678672086266,0.2058954840475941
Kota Kinabalu,Malaysia,0.7206637207641493,0.5418005713265488,0.4561127477236207,0.6620692733440456,0.5926062310301732,5.95509446088795,116.0520259513742,1892,0.1407683075936506,0.1774097136160336,0.1909539248150008,0.142434002268185,0.1731333565685697
"Provo, Utah",United States,0.7450067934782608,0.5667459239130435,0.5484261775362319,0.6822124094202898,0.5203577898550725,40.245309597030754,-111.65557481442204,1886,0.1578785394653646,0.1904893152312213,0.2296965935845513,0.1542300582161008,0.209070113535099
Markham,Canada,0.7187669010275824,0.5581958716423292,0.4897129078781323,0.6473769605191996,0.5644154497926808,43.874170912951165,-79.28570695329087,1884,0.158688766545622,0.1927300133947856,0.217766558290697,0.1612103809822046,0.2008546565200987
Hamburg,Germany,0.7646583879184862,0.5284411390101892,0.4972479985443959,0.605952056040757,0.550798307860262,53.55245861702127,9.987861659574468,1880,0.1496495683314022,0.1985175659473185,0.2290150976428315,0.1624033340550909,0.2143259230279912
Semarang,Indonesia,0.7459922797456857,0.553939600363306,0.4543256130790191,0.6139872842870119,0.5951861943687557,-6.993275098877605,110.42158631747728,1871,0.1367942896423798,0.1920912037671839,0.1999820447783076,0.1453841422590883,0.1858188480159606
"Jersey City, New Jersey",United States,0.7655438010393467,0.5832057349665924,0.5374211210096511,0.6476777097253156,0.5350083518930958,40.72476896180742,-74.06125540613233,1859,0.155893257807077,0.1966617613568205,0.2259857819113359,0.1655245539181039,0.2191551825754405
"Santa Clara, California",United States,0.7310637228012434,0.5472892667763759,0.5070739623331505,0.6352623880051197,0.5609686414335345,37.35553505933117,-121.9629255124056,1854,0.1680579084192548,0.1915355849413095,0.2153959839453536,0.1674023067825353,0.2068047599840102
"Vancouver, Washington",United States,0.7470221477759167,0.547250139586823,0.4905313605062348,0.6561627582356225,0.5807626093430113,45.66003635869565,-122.63445766304348,1840,0.1613002192945179,0.1918700827198033,0.2202074911574113,0.1667551838039758,0.2108965512532588
"Naples, Florida",United States,0.7049364681877203,0.5524253385271749,0.5152337228714524,0.6648465034316454,0.561027638657021,26.146728368794324,-81.75392564102565,1833,0.1718405319709348,0.1917280135831575,0.22981911462526,0.1599568669424112,0.2109569536207924
"Athens, Georgia",United States,0.7336432506887053,0.5654884887839433,0.5423676702085793,0.6669495277449823,0.5611348878394333,33.94710399780942,-83.39584578313253,1826,0.1684733194837178,0.1945400294143812,0.2349838924875443,0.1633517176090774,0.2069961805772945
"Fremont, California",United States,0.7399064673810867,0.540691389358902,0.4973679263019365,0.6341652566271856,0.5594684151156233,37.54787932930181,-121.98540313358988,1819,0.1574273920153186,0.188462329138864,0.2184814965635527,0.1653097189716873,0.2095247025759545
Southampton,United Kingdom,0.7416690101237345,0.5284026996625422,0.5143185226846645,0.6378655793025871,0.5814116985376828,50.91538931931378,-1.4109722357498615,1807,0.1656558460290085,0.1987436561549522,0.2222975106378451,0.1737159997490626,0.2089835057740549
Cluj-Napoca,Romania,0.7597102490421456,0.5431633141762452,0.494588122605364,0.6223060344827587,0.5746527777777778,46.76568236945537,23.594430095451997,1781,0.1474891615560335,0.1876829529030995,0.2216897977428895,0.159609165621573,0.2009913125332305
"Ann Arbor, Michigan",United States,0.7660995911214953,0.5712251752336449,0.5296680295950156,0.6539743964174455,0.5390990070093458,42.273315691788525,-83.7394390888639,1778,0.1593595714509027,0.203594503444667,0.2309502395503111,0.1669947747654792,0.223035326459305
Hong Kong,Hong Kong,0.7306633835457705,0.5565976245654692,0.5046712050984936,0.620570200849749,0.5160655658555426,22.295948508722564,114.17169521665728,1777,0.1558354739231546,0.1774319596433761,0.1967813085054989,0.1449888980581862,0.1958921711954397
"Greensboro, North Carolina",United States,0.7322485925063094,0.5651693845855174,0.515215492137449,0.6702218015919239,0.5509609784507863,36.06892873239437,-79.81401881690141,1775,0.1625023231722617,0.1776543162958325,0.2149694290064393,0.1569590237450741,0.2053091662835262
"Silver Spring, Maryland",United States,0.7547619047619047,0.5449900793650794,0.5088417658730159,0.6556051587301588,0.552765376984127,39.015292937853104,-77.02804768361582,1770,0.1548277359239582,0.1942327423056383,0.2203364233312775,0.1647544462201542,0.215773320785645
"Arlington, Virginia",United States,0.7597189580885233,0.5632833920877399,0.526831179005092,0.6438136506071288,0.5495005875440658,38.87371701884637,-77.09953609366076,1751,0.1539619868571243,0.1995155228943884,0.2299791031197589,0.164886606209105,0.2208523868959006
"Springfield, Missouri",United States,0.7345512446518864,0.5759918319719953,0.5259383508362505,0.6743606573317775,0.5588900233372228,37.1970836664763,-93.28990234151914,1751,0.1652993067700176,0.1889512140582319,0.2262547863438338,0.1645054909223896,0.2154596603196286
"Charlottesville, Virginia",United States,0.7434172030427151,0.5726667641895845,0.5406426760288668,0.6486614979520188,0.5513580066315584,38.03347724928366,-78.48977335243553,1745,0.1619569714993183,0.1957789068072145,0.2298762783473515,0.1695691788144053,0.2104143107645115
"Lexington, Kentucky",United States,0.7350621890547264,0.5572636815920398,0.5176741293532338,0.6604353233830846,0.5708582089552239,37.99972491389208,-84.46540206659013,1742,0.1682966955739866,0.1966000905486103,0.2314696175564923,0.170136335301891,0.2136871794264786
Malang,Indonesia,0.734058505408063,0.5608898721730581,0.4787118977384464,0.6317232055063913,0.5782079646017699,-7.978244587420658,112.62844339296018,1733,0.1391686924784092,0.1890600923393531,0.1925895132178953,0.1395675607951877,0.1861590695234419
Chandigarh,India,0.7646830027226761,0.5559242512640995,0.5056884480746792,0.6519715091404124,0.5679696616102684,30.73377009237875,76.78847269053118,1732,0.1387823895751154,0.1993682055234798,0.2100219889032737,0.1558586756775418,0.1849056583001286
Islington,United Kingdom,0.7590931372549019,0.557156862745098,0.5447794117647059,0.6207843137254901,0.5503553921568627,51.5382998265896,-0.0993185664739884,1730,0.1635209770014906,0.1979292051362248,0.2220034685702094,0.1646250817724237,0.2130518871510146
"Wichita, Kansas",United States,0.7229240109674893,0.5484723854289072,0.5059733646690168,0.6654181355268313,0.563858695652174,37.6929415313225,-97.33958462877033,1724,0.1683341013808099,0.1856863045702272,0.2266684821475148,0.1605530807744255,0.2035569462362127
Giza,Egypt,0.7352642276422765,0.527315090224073,0.4731558596073765,0.6369348602022605,0.5940412452905017,30.014235918367344,31.21599411078717,1715,0.1489931902273624,0.1875360153179368,0.2024064343057047,0.1660153778764194,0.1909933620212316
"Wilmington, North Carolina",United States,0.7380809894274885,0.5560791940953521,0.5283762218232595,0.6739352683024137,0.547563834031518,34.21505381924198,-77.903130787172,1715,0.1687133104650282,0.1868990408635209,0.2338091025379514,0.1585108354204472,0.2066694475730951
St Petersburg,Russia,0.7592840166369578,0.4916072489601901,0.4918919588037235,0.5383120419885126,0.5530798177857001,59.914912018669774,30.2847764294049,1714,0.145964014300663,0.2039640835354214,0.2170610910261307,0.1699896657159703,0.2078254433800749
"Eugene, Oregon",United States,0.7631084735576923,0.5421549479166667,0.5060972556089743,0.6561122796474359,0.5834835737179487,44.05048313748532,-123.1073159811986,1702,0.1644503848570207,0.1934839204516281,0.2246994571297911,0.1644326936482333,0.214927409384687
"Anaheim, California",United States,0.7340870392628205,0.5491160857371795,0.4917492988782052,0.6740159254807693,0.5781625600961539,33.829846875,-117.92379316037736,1696,0.1570434288908067,0.1882995334578854,0.2165955453206087,0.1584676569304586,0.2060004775869424
Phnom Penh,Cambodia,0.7138897250652217,0.5427327914910696,0.4593994581577363,0.6445163556090708,0.5817027894842465,11.557600177200234,104.91461612522149,1693,0.1413881187770383,0.1749395171605456,0.1899003058546655,0.1466631960959983,0.1774055253214234
Harrow,United Kingdom,0.7434880088673922,0.532950423216445,0.5358726320032245,0.6376713018943974,0.5687474808544942,51.5791050887574,-0.3300080887573964,1690,0.1660016147612816,0.1963992648448256,0.2224143801948555,0.1742666049826082,0.2169335841391103
Johor Bahru,Malaysia,0.7000581160299171,0.5441808166565595,0.461340206185567,0.6507858297958358,0.5819436021831413,1.4754969650266745,103.74284096028452,1687,0.1444659907153351,0.1768950854603154,0.1921476316926308,0.1380771735647432,0.1805012501553589
Cabanatuan City,Philippines,0.748671571632945,0.5805487431023911,0.4682071326384631,0.6727978745146127,0.597537298181075,15.4903,120.9682,1686,0.1450968920677469,0.1863553321141714,0.1972624955696466,0.1527402654980319,0.1855685061435297
Thessaloniki,Greece,0.7683594534860357,0.5245127586899738,0.5119675507333735,0.5869248543299176,0.5864099859353024,40.64365651397978,22.936168709101725,1681,0.1452826560478362,0.2013150195278192,0.222153888154142,0.1728129909108119,0.2041362117592576
"Huntington Beach, California",United States,0.7344825840421223,0.536338092345079,0.5203143985419199,0.649845585257189,0.5628923653300931,33.693478652355395,-117.99965736434108,1677,0.16621394876802,0.1883986683015496,0.2213296707712602,0.163581137728299,0.2135618078452061
Colombo,Sri Lanka,0.7491559238796808,0.5937180274196848,0.5184801514221403,0.6445416410886023,0.5368963576836505,6.925746019127317,79.86437549312613,1673,0.1467857177176349,0.1844994682082693,0.1955711869985106,0.1559816644446504,0.1877086099986962
Cambridge,United Kingdom,0.7434563588497368,0.5512353179424868,0.5140871810449574,0.6173298906439855,0.5731698055893074,52.19921763299463,0.115740740585774,1673,0.1630242603378285,0.2060979188560995,0.2251322400471729,0.1693185148213023,0.2184893191450835
Guatemala City,Guatemala,0.7535252494400325,0.5672979026674811,0.4979128487069843,0.6466860109957239,0.541781205457137,14.636258283313326,-90.51527545018008,1666,0.1509484387931313,0.1818792831952263,0.2180749920545354,0.1630769321865828,0.1925848745750569
Hobart,Australia,0.707726793248945,0.5527294303797469,0.5136207805907174,0.6484704641350211,0.5577004219409283,-42.88028726726726,147.3462941141141,1665,0.1729384042188815,0.1788247079565241,0.214759725660161,0.163488508916284,0.2133861487947718
Poznan,Poland,0.7618646662584201,0.479128393549704,0.4707338232292304,0.5685854255970606,0.6066671769748928,52.40521503623188,16.931778623188407,1656,0.1620144148009501,0.2174715320533556,0.2355202156321989,0.1886804058381805,0.2075201623938853
New Taipei,Taiwan,0.7073800081350416,0.5384253609924751,0.5196639210900955,0.6329189546471427,0.5427089688834655,24.946679335347437,121.585850755287,1655,0.1620245096856288,0.1772178216490354,0.2003803770125983,0.1463142105650959,0.198462417695424
"Akron, Ohio",United States,0.7388584117032393,0.5595480668756531,0.5072100313479624,0.6736415882967607,0.5679205851619645,41.08005683192261,-81.52948790810159,1654,0.1627259335041904,0.1844015161664777,0.2215504697376627,0.1627262681627871,0.2096537918241812
"Boca Raton, Florida",United States,0.7269320453031313,0.5970602931379081,0.56942593826338,0.6646263602043082,0.5225960470797246,26.36873581367211,-80.10907676950998,1653,0.1635080298441794,0.1912520831435789,0.2203802413760819,0.1575516188905932,0.2051551006088942
Surat,India,0.7525531045751634,0.5921543096405228,0.5233226102941176,0.6724622140522876,0.5546364379084967,21.18882628709873,72.82930678376742,1651,0.1432136109672083,0.1842280322854637,0.1936912820181291,0.1440124410667877,0.1701364264616219
Regina,Canada,0.7265301902398678,0.5608974358974359,0.5114247311827956,0.6636166253101737,0.5604967948717949,50.45040024316109,-104.5987365349544,1645,0.1566679471481309,0.188714156846586,0.2234453035918445,0.1584286683419882,0.2042943995219739
Wroclaw,Poland,0.7607425949103046,0.4898831873174802,0.4570035460992908,0.5699311639549437,0.5964877972465582,51.10390736906212,17.033577527405605,1642,0.1664440214159261,0.2150346558214526,0.2398147694717685,0.1810817976278997,0.2208720861478988
The Hague,Netherlands,0.7524270570948783,0.536169710327456,0.5296100965575147,0.6278337531486146,0.5230898404701931,52.07395613178768,4.2992387736424655,1639,0.154258290400618,0.1941101879824884,0.2165133998182371,0.1602285003910597,0.2116229532027648
Ulan Bator,Mongolia,0.7324444094818544,0.5402769037130271,0.4859319278372142,0.5853655338787498,0.5630244388504301,47.90990730509515,106.88484757519952,1629,0.1434016208431726,0.1655056123365496,0.1873515759181195,0.150369398428944,0.1743425797020359
Bhopal,India,0.7642749323339579,0.5526363731001458,0.5047626483447845,0.6585727670206121,0.5576332500520508,23.247665185185184,77.40701697530864,1620,0.1436002193363283,0.1909286642394327,0.208888797130152,0.1481405550795939,0.1865751438875493
Carmona,Philippines,0.7486245954692556,0.5616504854368932,0.4709412081984897,0.6684466019417475,0.6159519956850055,14.435944588744588,121.0377406926407,1617,0.136990638925303,0.1696691839147442,0.1884370464824399,0.1537131443865232,0.1714091283601854
"Little Rock, Arkansas",United States,0.7217431434599156,0.5614715189873418,0.5062236286919831,0.6669567510548524,0.5627373417721518,34.75393508663367,-92.35513558168316,1616,0.165812132319585,0.1897015780761799,0.2228187921951048,0.1653733312066974,0.2076684787435236
"Champaign, Illinois",United States,0.7279411764705882,0.5902821234876929,0.5523831873174803,0.6696782436378806,0.527808197747184,40.11469287925696,-88.24982953560372,1615,0.1555258043260466,0.1889944143294682,0.2186940340993872,0.1572040531729055,0.208923374864169
Trondheim,Norway,0.7154032258064517,0.5538844086021506,0.5379569892473118,0.6336559139784946,0.5251881720430107,63.42760874453467,10.401179200499689,1601,0.1687779007967238,0.1962009015362507,0.2246744190048447,0.1609173768953054,0.2239145154889216
"Fort Collins, Colorado",United States,0.7441093817552962,0.5647562689148292,0.5174556852572416,0.6637213575443147,0.5499621703415477,40.56038881869867,-105.08122665824384,1583,0.1726209678890207,0.1913126863820003,0.2249544478041711,0.1620997676324531,0.2131721711443477
"Albany, New York",United States,0.7261983289357961,0.5732052550571679,0.5247086631486367,0.6776742524186457,0.5612906772207563,42.67435770953295,-73.78248483685222,1563,0.169419327393469,0.1904032872692832,0.2290744786169989,0.162710700492099,0.2155016037764609
Talavera,Philippines,0.7507057546145494,0.5763029315960913,0.4822611292073833,0.6778230184581976,0.6023751357220413,15.58,120.9238,1562,0.1368845930505335,0.175363526778139,0.1833234360305788,0.1436949517396108,0.1696870969115176
Bergen,Norway,0.7307987711213517,0.5501426377002414,0.5426404432740839,0.6383448540706606,0.5244129910028528,60.39272711538461,5.319248314102564,1560,0.1677198258215238,0.2027866763118992,0.2331664764857167,0.1614980550748667,0.2239189312352561
"Tuscaloosa, Alabama",United States,0.7129599030623485,0.5969376514650804,0.58488929279577,0.6698198942498348,0.5293429169420577,33.19732143774069,-87.54349711168165,1558,0.1622164976220202,0.1878768723856199,0.2267986321644216,0.1653927314747542,0.199861915790751
"Davie, Florida",United States,0.7425328038674033,0.5602843001841621,0.5373503683241253,0.6719037753222836,0.5567449355432781,26.070173054662376,-80.26845556270096,1555,0.1581440216287955,0.1874476986448162,0.2229791026898459,0.1561258887004175,0.20148522428491
Milano,Italy,0.7689902795980779,0.5140208606378331,0.4669479030144168,0.5900229357798165,0.5988695937090432,45.46419999999999,9.1899,1555,0.1464565693290098,0.2027768770788357,0.2259492737653513,0.178927961259831,0.2091346252326673
Tadlak,Philippines,0.741326473234368,0.5727901484480432,0.4670209176788124,0.6737938596491229,0.6065423976608187,14.183,121.1993,1551,0.1412136081037678,0.1682578338041645,0.1833969849735246,0.1480714647530103,0.1754284943615638
Gillingham,United Kingdom,0.7483753822629969,0.5371614242027086,0.5429909349060725,0.6451507208387942,0.5768621668851026,51.33039404915912,0.556409126778784,1546,0.1657932374773029,0.1929886083678208,0.2241095224251566,0.1705843862253755,0.2105069451552831
Coventry,United Kingdom,0.7466175171195052,0.5332587806494367,0.5101888667992047,0.631930638391871,0.5662000220896841,52.4067121919585,-1.50816542153048,1542,0.1543729558589823,0.2006866607770377,0.2319399735024783,0.1696643743931187,0.212947901152409
Durban,South Africa,0.7591473509933775,0.5721302428256071,0.4821743929359823,0.661189293598234,0.5484823399558499,-29.873004158544507,31.00796972059779,1539,0.1576324461676515,0.2036977002127254,0.2275706057080718,0.1769544623095397,0.2129475667165561
Richmond,Canada,0.7275747508305648,0.5610741971207087,0.5031146179401993,0.6478543743078627,0.5528516057585825,49.076382942708335,-122.04271751302085,1536,0.1614424364319564,0.1898538704558341,0.2120875735976315,0.1551451746889486,0.2143807324784724
"Syracuse, New York",United States,0.7333500111185235,0.5694212808539026,0.5395819435179009,0.6709889926617745,0.5579830998443407,43.05108559322034,-76.14431186440677,1534,0.1671115965322482,0.1871214544773746,0.2214868749569178,0.1665957900286187,0.2095595148509309
Alexandria,Egypt,0.7376964085297419,0.52408810325477,0.4816778900112233,0.6417648709315377,0.6049803591470259,31.00731052287581,29.75132424836601,1530,0.1517991296854372,0.187855117939491,0.2068196806452993,0.1715416778336096,0.1898497988835892
Imus,Philippines,0.7530189109136478,0.5635395306447938,0.4739120528594213,0.678941672362725,0.6024720893141946,14.433915465268676,120.9375882044561,1526,0.1392320671956773,0.1790902954282433,0.18907506659235,0.1466778497333516,0.1800920114285858
"Stockton, California",United States,0.7228476821192052,0.5544564017660044,0.4941639072847682,0.6814845474613687,0.5706815673289183,37.97463165137614,-121.302776146789,1526,0.1627666305197393,0.1827511017824873,0.2098523317766309,0.1554035672144141,0.2004328976415981
Baguio City,Philippines,0.7469301183299845,0.5908964054476445,0.4803667113194909,0.6859790131725833,0.5877148917169012,16.412472178477692,120.5929341863517,1524,0.1361756310555615,0.1819002637026388,0.1900955464610606,0.1431933445911112,0.183949131479766
"Herriman, Utah",United States,0.692066210045662,0.5318778538812785,0.5283533105022832,0.6749714611872146,0.5725028538812785,40.5153,-112.0316,1505,0.1691451879764423,0.1758010597248253,0.2301949112544971,0.1552196889540845,0.2024371429991537
Kelowna,Canada,0.7033635224424698,0.56830997949419,0.5448422191843244,0.6572254499886079,0.5357000455684666,49.89675669344042,-119.4805093038822,1494,0.1728982659326116,0.1867720146567389,0.2215103005019885,0.1671136408387365,0.2119450101006848
Addis Ababa,Ethiopia,0.7530781584582441,0.5741285986200333,0.4799399238639067,0.6299666904591958,0.4936057577920533,9.022688909825034,38.74756911170929,1486,0.1525092041783518,0.2062451214867646,0.2013687583629326,0.1674890184767854,0.2010729087191817
"Chandler, Arizona",United States,0.7491209563994374,0.5554236990154712,0.5147679324894515,0.6498769338959213,0.5677303094233473,33.297079132791325,-111.84179925474255,1476,0.1636330586289345,0.1967183132013269,0.2304150976615743,0.1679977327998457,0.2130085989330133
Bhubaneswar,India,0.7806029579067121,0.5656996587030717,0.4934158134243458,0.6728526734926052,0.575995449374289,20.270808751696062,85.83327971506105,1474,0.1345852877549138,0.1992099882860885,0.2003380077801795,0.1532245768548807,0.1813056825103576
Puchong Batu Dua Belas,Malaysia,0.7072959889349931,0.533684877823882,0.4884307284462886,0.6526625172890733,0.5742565698478561,3.0641504353741493,101.6196944217687,1470,0.1445230880505639,0.1820319131143674,0.2015065700041564,0.1454224959489505,0.1814152032119215
Coimbatore,India,0.7548582533150434,0.582890374942844,0.5225765889346136,0.6577789208962048,0.5403949474165524,11.01419412568306,76.99408087431695,1464,0.1389094323146039,0.1909830385501033,0.2071286028166818,0.1504301020374154,0.1854428502479322
"Reno, Nevada",United States,0.7515503189227498,0.5729388140798488,0.508785140562249,0.6698706591070163,0.5644489723600283,39.51868877481178,-119.81249520876112,1461,0.1564967381957051,0.187981019123507,0.2280585828657998,0.1574247869263816,0.2121979404995555
"Anchorage, Alaska",United States,0.7439805027014329,0.5549536058256989,0.5143440216114634,0.6635981912144703,0.5424594785059902,61.18923438789546,-149.8639704264099,1454,0.1694184851520135,0.1948252200860008,0.2226951478634389,0.1624105959665146,0.2172627573386314
Leicester,United Kingdom,0.7409945297951583,0.5320792597765364,0.4930604050279329,0.642647229981378,0.5819657821229051,52.6394782369146,-1.1366997865013777,1452,0.1611085408755079,0.1906495281600087,0.2260639486103441,0.1614753051027238,0.2110797812108516
Cardiff,United Kingdom,0.7461622807017544,0.5287162162162162,0.5213963963963965,0.6344979848269322,0.5904160739687055,51.48768134230504,-3.158594254658385,1449,0.1705701049318065,0.2007214882635295,0.235392076480674,0.1655907274675117,0.2092089351781308
"Arlington, Texas",United States,0.7396986469864698,0.5430504305043051,0.4983394833948339,0.6691420664206642,0.5685424354243542,32.716704567474046,-97.11232387543252,1445,0.1622249291081128,0.1962409643342074,0.2261204480891679,0.1645509309377207,0.2148185996503981
"Plano, Texas",United States,0.7626371006199333,0.5422478540772532,0.5073020982355747,0.6477855269432522,0.552679422985217,33.0406130977131,-96.7144611919612,1443,0.1539104146321429,0.2033020419451116,0.2374556068260421,0.1676449944069972,0.2230586602828818
"West Valley City, Utah",United States,0.7057217894239849,0.5367829320113314,0.5158168083097262,0.6667109301227574,0.5724592776203966,40.69807152777778,-111.99982305555557,1440,0.1712408389552482,0.1800605035569231,0.226492794294589,0.1589631204754657,0.1982874396109609
Beijing,China,0.708425788954635,0.5478611932938856,0.512758875739645,0.6374506903353058,0.5110022189349113,39.903072822299656,116.38938097560975,1435,0.1492464922896472,0.169150614741992,0.1929998334974121,0.1388688420840626,0.1893702234766795
"McKinney, Texas",United States,0.7200668797348485,0.5406753077651515,0.4990382339015152,0.6490737452651515,0.5674863873106061,33.190979986052994,-96.61990662482566,1434,0.1668242620391707,0.1835954066417539,0.2310348189263245,0.1700698445358764,0.2151301405365497
"Winston-Salem, North Carolina",United States,0.7312925170068028,0.5631377551020408,0.529655612244898,0.6685495626822158,0.5569576044703596,36.0920262937063,-80.2733551048951,1430,0.160439482589017,0.1921395244655992,0.2234324222413138,0.1600236649944798,0.2062854438363463
Solna,Sweden,0.7319940476190476,0.5416815476190476,0.5773065476190475,0.6270238095238095,0.5168154761904762,59.36585174825174,18.004466993006996,1430,0.1667468890927941,0.1996313721135462,0.2369309555024618,0.1730939100494956,0.222011884240182
Tirana,Albania,0.774228615677865,0.5769001667857994,0.5077436263998094,0.6161692875863712,0.5596705980462234,41.32575269419174,19.81790958712386,1429,0.1469096061460316,0.1889569134733947,0.212088181545772,0.1680225111453532,0.2011041543720329
"Wilmington, Delaware",United States,0.7095097688825351,0.561055515844651,0.5027549440076244,0.6575530140576602,0.5482487491065047,39.75671385584325,-75.56883540937719,1429,0.1706196787400591,0.191249561115319,0.2264248727228973,0.1573299364351044,0.2123176136554279
Hackney,United Kingdom,0.7473734479465138,0.5447856972301814,0.5307873686723973,0.6309395893027698,0.5595302053486151,51.55309985964912,-0.0594228070175438,1425,0.1652981174875897,0.1925015822243657,0.2218791535897925,0.1661080562522904,0.2161256517736969
"Frisco, Texas",United States,0.7337295869356388,0.5425822526416907,0.5278878482228626,0.6401446926032661,0.5545449087415947,33.142249260042284,-96.78121599718112,1419,0.1757589403772683,0.2072975929817541,0.2246096658488653,0.1790487281872134,0.2165349830558147
San Pablo City,Philippines,0.7493198485923823,0.5679116394606104,0.4777324343506032,0.6812455642299503,0.6041666666666667,14.0740511627907,121.32976645525017,1419,0.135289697525272,0.1869706334555786,0.1937725927992678,0.1476817486903069,0.188967322545193
Izmir,Turkey,0.793842393896042,0.5155877443967573,0.5041428230805913,0.5427694325226514,0.5710836909871244,38.43333794076164,27.146710084626232,1418,0.1484910453480749,0.2338159661767056,0.2361386299293105,0.1848105411037422,0.2147938554333731
"West Palm Beach, Florida",United States,0.7282507451564829,0.5736152508693492,0.5412785643318431,0.6556756085444609,0.526359910581222,26.706331731448763,-80.10674113074205,1415,0.1624939908812755,0.1856673206855972,0.224710889834693,0.1643557159134044,0.2108608501276494
Newcastle upon Tyne,United Kingdom,0.7372651734104047,0.5302414499036608,0.5059609826589595,0.6375692437379576,0.585621387283237,54.97655230007078,-1.6132968860580323,1413,0.1628522134535089,0.1972519524313056,0.23056994766503,0.1688230669328079,0.2139834766820942
"Mason, Ohio",United States,0.6761182108626198,0.5673588924387647,0.5309338391906283,0.671026357827476,0.5630824014909478,39.3360226980728,-84.31256923625982,1401,0.174775584234191,0.1912764161875503,0.2239072243231666,0.1648321680792036,0.2055418680473709
Tarlac City,Philippines,0.7434876769155685,0.5737707418252807,0.4762689116642264,0.6723249145924841,0.5881222547584187,15.474046318799145,120.61860007147962,1399,0.1386102861521898,0.1897506056785572,0.1888489096119514,0.1519383622532139,0.1883281309861176
Quito,Ecuador,0.7635862875430822,0.5969965534219597,0.5532988675529296,0.6757447070408666,0.506846996553422,-0.2305302909482758,-78.52075251436783,1392,0.1428150853423782,0.1879499498644248,0.2182373395687874,0.1681831090380056,0.2062929370747431
Québec,Canada,0.7669261181121818,0.5335279219174697,0.5150728935013591,0.6361965653570546,0.5511181121818631,46.79919790007241,-71.27317856625633,1381,0.1526397863031548,0.1890622784466187,0.2282275128035591,0.1672754086129765,0.2084000529419305
"Marietta, Georgia",United States,0.7567685047193244,0.5568492300049677,0.5217182066567313,0.6687313710879285,0.5447404371584699,33.95370850909091,-84.54000203636363,1375,0.1535663128965484,0.1944604813772014,0.2246777918055362,0.1588574681425024,0.214547203739421
San José,Costa Rica,0.771577934971457,0.5524789029535865,0.5054914370811616,0.6290797964755522,0.547716554976421,9.933111026200873,-84.07321368267831,1374,0.1522290458644696,0.1942032456329221,0.2225675433209777,0.1715601102902807,0.2052560435632062
"San Mateo, California",United States,0.7434519397084259,0.5528323449468743,0.5007258463059056,0.6306523350630097,0.559225969854213,37.55682046613256,-122.309775600874,1373,0.1647007238781775,0.1938654512259522,0.2217340698949497,0.1712711473862275,0.2085516625119713
"Overland Park, Kansas",United States,0.7216598563645369,0.5530429668152551,0.5293307330361565,0.667750123823675,0.5495294700346706,38.94616916909621,-94.6855774052478,1372,0.168557506684632,0.1966435723288995,0.2287791562336478,0.1654700299873797,0.2096752579448362
Utrecht,Netherlands,0.7596525698602795,0.5586639221556886,0.5678486776447106,0.6407029690618762,0.4947604790419161,52.09012167883212,5.113683211678832,1370,0.1466682924267491,0.1965261402359515,0.2170469714144022,0.1640398302535494,0.2152846971970937
"Fort Myers, Florida",United States,0.7246200797209765,0.5775722471350274,0.5283383158943696,0.6882318136522172,0.5595260338814151,26.610069202633504,-81.84358017556694,1367,0.1659114369432132,0.1866676961196531,0.2264544552683804,0.1666290208399209,0.2067831684176144
Ljubljana,Slovenia,0.755649188514357,0.5212390761548065,0.4940387016229712,0.5969881398252185,0.5716604244694132,46.05091848862802,14.50504739545121,1363,0.1569878253681116,0.1999935363572692,0.2338638080022191,0.1706974269700825,0.2087053898228688
Rawalpindi,Pakistan,0.7477194280078895,0.5710521449704142,0.5223126232741617,0.6831391765285996,0.5742264546351085,33.604538032305435,73.03674317180617,1362,0.1447618443530385,0.1900748537007908,0.197158329268608,0.1502160792685241,0.1832152009896957
Langley,Canada,0.7256453214197071,0.5504932985852569,0.5227879126334077,0.6449491188880615,0.5619725738396624,49.11699375459221,-122.63186340925787,1361,0.167362470569526,0.1918092387416869,0.2202666055257936,0.1632697054123159,0.2116990447908167
"Pensacola, Florida",United States,0.7295727136431784,0.566013868065967,0.5364349075462269,0.6456459270364817,0.5464923788105948,30.45003913043478,-87.22472439204127,1357,0.1705611098447229,0.2006353561354864,0.2339961692175522,0.1964773923451374,0.2173854148949295
"Greenville, South Carolina",United States,0.72625,0.5624358974358974,0.5272275641025641,0.6558493589743589,0.5598557692307692,34.84635221238938,-82.3726342182891,1356,0.1743027536791224,0.1907217818865221,0.2346569919872631,0.1667353343903339,0.2102999760374602
Makassar,Indonesia,0.7478507781124498,0.5539658634538153,0.4567331827309236,0.6139558232931727,0.5924636044176707,-5.151954147601476,119.43695350553504,1355,0.1382315885936882,0.2001347392303404,0.2079201548863937,0.1423625670318386,0.1983204664785224
Curitiba,Brazil,0.7653992395437262,0.4929816223067174,0.4452629911280101,0.5802281368821293,0.5990811153358682,-25.49235388026608,-49.2885940872136,1353,0.148868019617273,0.2013099498369019,0.2287781911332758,0.184837545176161,0.2093350488117665
Accra,Ghana,0.7387074574574575,0.621387012012012,0.4712525025025025,0.6982607607607608,0.4896302552552553,5.550089230769231,-0.2011234548816567,1352,0.1444263792019139,0.1968909926902922,0.2047046403684425,0.1564959524256936,0.2064836126436585
Casablanca,Morocco,0.7743684012066365,0.5013197586726998,0.4624811463046757,0.6222505027652087,0.5778186274509803,33.57611457100592,-7.615685007396449,1352,0.1489314020679879,0.1927477362682994,0.2123846947266284,0.1778223151195147,0.1917350918974289
Cologne,Germany,0.757461017382413,0.5209930981595092,0.5008627300613497,0.6140241564417178,0.565168072597137,50.9352008215086,6.955130112023898,1339,0.1516170655950088,0.2016961446779391,0.2228249693978095,0.1646347630935418,0.2120838010036257
"Davis, California",United States,0.730541856348002,0.5605399595346484,0.5232043500252909,0.6516186140617097,0.5590857359635811,38.55279617691154,-121.73549557721138,1334,0.1616408551329655,0.1857565157178274,0.2227936296332885,0.1542729196285023,0.2044263176861952
"Garden Grove, California",United States,0.7049381535322622,0.5396423106350421,0.4891131089007906,0.6772188217291507,0.5851664116296863,33.780686165413535,-117.93521112781954,1330,0.1586224386328538,0.1819906401379994,0.2122479370145668,0.1525088042136384,0.2040857848352632
"Round Rock, Texas",United States,0.735415035238841,0.5416503523884103,0.504747454972592,0.649324588880188,0.5712118245888802,30.512095540438395,-97.67436432350718,1323,0.162416553550159,0.1927517930330074,0.2324184249461431,0.1688948433740783,0.2114663668297164
Sarajevo,Bosnia and Herzegovina,0.7778163886682553,0.5407069102462272,0.5026806989674345,0.607625099285147,0.558859544612126,43.84542243346008,18.35842509505704,1315,0.1484437696603751,0.205123430135647,0.2319583201228894,0.1803935645749601,0.21159473284467
