Cluster,Latitude,Longitude,o,c,e,a,n,o_std,c_std,e_std,a_std,n_std,Count,City
0,32.44552603448276,-99.73834775862068,0.7231040564373897,0.5762419165196944,0.5312683715461494,0.6818783068783069,0.5477292768959435,0.1771168560363274,0.1947644428096961,0.2312183123654753,0.1727346911975238,0.2184544320408593,580,"Abilene, Texas"
1,41.08005683192261,-81.52948790810159,0.7388584117032393,0.5595480668756531,0.5072100313479624,0.6736415882967607,0.5679205851619645,0.1627259335041904,0.1844015161664777,0.2215504697376627,0.1627262681627871,0.2096537918241812,1654,"Akron, Ohio"
2,42.67435770953295,-73.78248483685222,0.7261983289357961,0.5732052550571679,0.5247086631486367,0.6776742524186457,0.5612906772207563,0.169419327393469,0.1904032872692832,0.2290744786169989,0.162710700492099,0.2155016037764609,1563,"Albany, New York"
3,35.08821478915662,-106.64609373493975,0.7497919916796673,0.5576963078523142,0.497549401976079,0.6599063962558502,0.5596073842953718,0.1658991249560712,0.1957617824377329,0.2238259511511825,0.1670776440179739,0.2188707896206,3320,"Albuquerque, New Mexico"
4,38.956575358674066,-77.19446431036096,0.7411295226991252,0.5522394200288551,0.5132989246526836,0.6459861856645727,0.5566193754529557,0.16138993042539299,0.1948194517949636,0.22664976303674622,0.16720292799164607,0.21436604974145698,33796,"Alexandria, Virginia"
5,42.14422361331311,-88.31468588622666,0.6813072028594328,0.5579994088567999,0.5336637574875294,0.671765566296784,0.5597304048828015,0.16337397954865754,0.1757377516950869,0.22312311051562492,0.15062491037633854,0.1982054297529263,2232,"Algonquin, Illinois"
6,34.13333320368017,-118.26916135758712,0.7593108683950823,0.5589214509078544,0.5223605118445095,0.653371439299173,0.5612878994481193,0.15947411158445177,0.19041328122120252,0.22253750595409846,0.16793207076110142,0.20781261663244785,28389,"Alhambra, California"
7,33.82154140324701,-117.81472459200819,0.7309491689151454,0.553447824303681,0.516105708879277,0.6646910201402791,0.5654866365639946,0.16087027421562536,0.1868563418348791,0.22211004929824119,0.16066085058604332,0.20551428642737077,26845,"Aliso Viejo, California"
8,33.012852500532716,-96.68795904809456,0.7237416222527633,0.5443357292643705,0.5049378182283877,0.6550749419609253,0.5605417428405364,0.16354300528870405,0.18983642503922152,0.22179600470967534,0.1665335183991853,0.21007396959543156,15934,"Allen, Texas"
9,40.6220509596929,-75.44377484206717,0.711502331596508,0.5677868455707547,0.5299323945617519,0.66989329469557,0.5685443775282564,0.1737608519398099,0.18494256693581315,0.2165210433295826,0.16384686558659206,0.20496120843052668,1883,"Allentown, Pennsylvania"
10,34.01509145116389,-84.14726397294415,0.7472235741624514,0.5605044241521661,0.5055226072249567,0.6602129725769433,0.547596405636447,0.15500296326612772,0.1940793691924574,0.22179530508303405,0.17061674052683293,0.20592050121951166,2830,"Alpharetta, Georgia"
11,35.18881343719571,-101.86606426484909,0.6599635882158226,0.5464457133399537,0.5133027143330023,0.6486055941741146,0.5548866269447204,0.1837225259253031,0.1774417370756808,0.2193614684955604,0.1666358186980166,0.2106476791925138,1027,"Amarillo, Texas"
12,42.0413477631579,-93.62924355263158,0.727314181486548,0.5698244414044688,0.5205198358413132,0.6589147286821706,0.5402416780665755,0.1603527571023644,0.1875010237333075,0.2287236721751957,0.1590077985809412,0.2109010993415672,760,"Ames, Iowa"
13,42.36550361842105,-72.46763190789474,0.765483276643991,0.5542800453514739,0.5236323696145124,0.6452310090702947,0.5780541383219955,0.1553565521454644,0.2041394716896279,0.2257622723996348,0.1559178243265475,0.2183312986711661,608,"Amherst, Massachusetts"
14,61.18923438789546,-149.8639704264099,0.7439805027014329,0.5549536058256989,0.5143440216114634,0.6635981912144703,0.5424594785059902,0.1694184851520135,0.1948252200860008,0.2226951478634389,0.1624105959665146,0.2172627573386314,1454,"Anchorage, Alaska"
15,34.52494928315412,-82.64710465949821,0.7181372549019608,0.573106828938472,0.5373985801217038,0.6885141987829615,0.5482167004732927,0.1701729946426221,0.1927002280874156,0.2358599793238988,0.1585752670276482,0.2065435222943042,558,"Anderson, South Carolina"
16,42.25393716979363,-83.68052732745082,0.7577148545103725,0.5665108995139285,0.5157048615284832,0.6591482378657432,0.5501296214039226,0.16303340991700635,0.2012496628602743,0.2271365650406264,0.16218050317751215,0.2185366397610521,2414,"Ann Arbor, Michigan"
17,38.98048429172511,-76.52484992987377,0.720173860911271,0.5892086330935252,0.5551858513189448,0.6735611510791367,0.531294964028777,0.1665512471033013,0.1860479940910878,0.2206782221094579,0.1588389912636288,0.2096913990502077,713,"Annapolis, Maryland"
18,35.753795245409535,-78.8309337707499,0.7445727600892975,0.5593247367377114,0.49319786391677983,0.6498559393682403,0.5656411448826721,0.16391107560850066,0.20293041767816888,0.23129462265505624,0.1645014444721754,0.2108931761711596,1636,"Apex, North Carolina"
19,44.71006612332263,-93.2333451766325,0.6870394882854396,0.5529192369774604,0.5228582336819805,0.6796886121802779,0.5638812173778873,0.17083155989222643,0.18395426799719455,0.22292081686006746,0.1520539748807955,0.19570951634638245,1787,"Apple Valley, Minnesota"
20,44.223975362490094,-88.43564001417968,0.6898154982263858,0.561803035379403,0.5272513512198573,0.6707611696787148,0.5630444409797781,0.1738572136798025,0.18412797920416,0.21576055814873846,0.15706638134225803,0.2052818721472439,1598,"Appleton, Wisconsin"
21,32.716704567474046,-97.11232387543252,0.7396986469864698,0.5430504305043051,0.4983394833948339,0.6691420664206642,0.5685424354243542,0.1622249291081128,0.1962409643342074,0.2261204480891679,0.1645509309377207,0.2148185996503981,1445,"Arlington, Texas"
22,39.7682857874725,-105.01835564171604,0.7398333128911512,0.5645194219703422,0.5185804741685335,0.6555045048361035,0.5486760355304227,0.16407619139576698,0.18795879713446834,0.22426379805404448,0.16080016811655548,0.21304968437984087,18483,"Arvada, Colorado"
23,35.58751322957199,-82.55633826199741,0.7965167548500881,0.5505125661375662,0.5089285714285714,0.6726741622574957,0.564539241622575,0.1496543464547412,0.1963359853861648,0.2229001521305569,0.1585480157760053,0.2105712535848014,771,"Asheville, North Carolina"
24,33.94710399780942,-83.39584578313253,0.7336432506887053,0.5654884887839433,0.5423676702085793,0.6669495277449823,0.5611348878394333,0.1684733194837178,0.1945400294143812,0.2349838924875443,0.1633517176090774,0.2069961805772945,1826,"Athens, Georgia"
25,39.32789025157233,-82.09993584905659,0.7422752808988764,0.5872124130551096,0.5437734082397003,0.7164927768860353,0.5569154628143392,0.1580170894663089,0.1895255035368559,0.2282859507815867,0.1589792378928916,0.2081393696986173,636,"Athens, Ohio"
26,33.76489326939908,-84.3366016645777,0.753920235691536,0.5686819056862095,0.5371945586972993,0.6668713564210667,0.5387782915093426,0.1642708460071367,0.19544217756254806,0.2281644575587273,0.16600156706176633,0.21918417131917983,18295,"Atlanta, Georgia"
27,32.55893672680413,-85.47874325601374,0.67939364461738,0.6082558726041216,0.5778390257962243,0.6817985300475573,0.5068453667675458,0.164111512542772,0.1769109217465308,0.2173445500909135,0.14485024972368,0.1914189996608545,2328,"Auburn, Alabama"
28,47.631242653829695,-122.2089589734137,0.7458496905594472,0.5592297856978442,0.5085861336964154,0.6501924146806355,0.5521408520308864,0.16086711349079116,0.18954629675845533,0.22371764239197164,0.1641066630395091,0.21466486657238898,23711,"Auburn, Washington"
29,33.47633595800525,-82.04311719160106,0.7241213151927437,0.5719387755102041,0.4879818594104309,0.6832482993197279,0.5465702947845805,0.1640866893687555,0.1878940043163171,0.2252280634526383,0.1727458170412028,0.2171421657585338,762,"Augusta, Georgia"
30,41.747909630134274,-88.14192201393986,0.7073671783754145,0.5564949047625007,0.5250075281429655,0.6739590048837264,0.5667669080501676,0.16686646610229455,0.185294152907092,0.2242130480534631,0.16118942109394363,0.20428125970267566,3233,"Aurora, Illinois"
31,30.270841294757364,-97.745417749051,0.7635419959953631,0.5603352127024274,0.5364039940984298,0.6542180419433028,0.5423758211262164,0.1596679606862442,0.1920992704491517,0.2244036289103053,0.1634744798346412,0.2149365045582009,9747,"Austin, Texas"
32,32.9074,-97.5322,0.6052802073210237,0.5052437641723356,0.5327380952380952,0.6350016196954972,0.571934726271461,0.1677046706464569,0.1652647159411345,0.2073949358711277,0.1703359982492808,0.1915223765490159,1029,"Azle, Texas"
33,35.36116026970954,-119.03125140041494,0.7226369802677942,0.557104474982382,0.4960469520789288,0.6782395172656801,0.5749867864693446,0.1620804548474573,0.1895054635322193,0.2145280755112245,0.1616678672086266,0.2058954840475941,1928,"Bakersfield, California"
34,39.232552680229475,-76.62446522525272,0.7381205991168397,0.5619666726339658,0.5123300977311003,0.6723448419328746,0.5652619478590657,0.15831839718513155,0.18782793131522174,0.2224703983025147,0.1640839116266663,0.21359374758585636,5040,"Baltimore, Maryland"
35,30.438018737166324,-91.16836103696096,0.7543324491600354,0.5512709991158267,0.5103890362511052,0.6541335101679929,0.5562997347480106,0.1640435725670546,0.1990873254912055,0.2284252056301112,0.1733232277151491,0.2223044714670708,1948,"Baton Rouge, Louisiana"
36,45.505399055752605,-122.82371815081542,0.7429820272958714,0.5470103048015235,0.4953263729618158,0.6539440997860559,0.5756477661170972,0.1655354567312087,0.18728942200228424,0.22549165595026213,0.16491037630556935,0.21206502139013786,13508,"Beaverton, Oregon"
37,39.53582914349276,-76.354342269188,0.6896472392638037,0.5512269938650307,0.5166666666666666,0.6434304703476483,0.5849182004089979,0.1759654857289915,0.1814421647606915,0.2308755434964183,0.169088727457483,0.2027498141999164,899,"Bel Air, Maryland"
38,48.76320841856806,-122.4737910306845,0.7567312870220787,0.5602113624124933,0.5141861873990307,0.6674912493268713,0.5592184975767367,0.1533916325830596,0.180581414317086,0.2222931510252757,0.1493612009093685,0.2080285134774119,1271,"Bellingham, Washington"
39,31.073546709470303,-97.47266532905296,0.6650219298245614,0.5258406432748538,0.5280336257309942,0.6460160818713451,0.5785818713450293,0.1768402165007048,0.1841484945061367,0.2334535301970916,0.1744243803618223,0.2003987533457184,623,"Belton, Texas"
40,44.0772792746114,-121.2923512953368,0.7611893315018315,0.5591804029304029,0.5035485347985348,0.660342261904762,0.5450148809523809,0.1559923533477226,0.1946435140175396,0.2262404870833478,0.165093718597882,0.2184447260033475,772,"Bend, Oregon"
41,36.35275119418483,-94.22026303219108,0.6852920601608955,0.5331409583770549,0.530889296956978,0.6510362014690452,0.5731243441762854,0.1718017678684605,0.1876754726943332,0.2327455263975233,0.1634997649703507,0.1964996951899071,963,"Bentonville, Arkansas"
42,37.78681935659576,-122.13466611305607,0.7446963865949188,0.5499171302195178,0.5183071000611784,0.6490715414382512,0.5572296730863996,0.15890035695012558,0.18769283753080243,0.22030523330942892,0.1590083172179234,0.20882503528001567,10925,"Berkeley, California"
43,45.77998017883756,-108.54409284649776,0.7184416118421053,0.541735197368421,0.4925644188596491,0.6509731359649124,0.5711006030701755,0.1689418319858205,0.1860509658379998,0.2266608151449176,0.1767787044112806,0.2084386402134469,671,"Billings, Montana"
44,33.495279113384484,-86.8038884910486,0.7324580598103574,0.5667304886943837,0.5196845368344275,0.6666484318016047,0.5596371261852662,0.1714683206916276,0.1961327231634838,0.2248991738786549,0.1675944685088903,0.2169460103462262,2346,"Birmingham, Alabama"
45,46.81855897790055,-100.8483652854512,0.6289364027077702,0.5497616699539776,0.5166747327537926,0.6614161005186646,0.5584509764531131,0.17257288374847166,0.17226573570739978,0.22387808197434575,0.15709171526215066,0.1931037556767809,1595,"Bismarck, North Dakota"
46,37.24513785714286,-80.4283063095238,0.7150142798857608,0.5852458180334557,0.5548500611995104,0.6723786209710323,0.533047735618115,0.1683906389064581,0.1903493375173331,0.2256793305977561,0.1572418564464902,0.2040722404840141,840,"Blacksburg, Virginia"
47,40.49107475552219,-88.97299143688903,0.7096824367641916,0.59414259302431,0.5605189432205255,0.6767100866456852,0.5368402413516209,0.1685241468697051,0.18867525200349483,0.2336128331543823,0.16307573829337105,0.2047314696525246,1513,"Bloomington, Illinois"
48,39.15558013059701,-86.52438264925374,0.75467605858007,0.5580627188793378,0.5404528812480102,0.6645375676536135,0.5715536453358803,0.1659359155094545,0.2053376714571221,0.2317982254298685,0.1578124095478312,0.2126516953479107,1072,"Bloomington, Indiana"
49,26.36873581367211,-80.10907676950998,0.7269320453031313,0.5970602931379081,0.56942593826338,0.6646263602043082,0.5225960470797246,0.1635080298441794,0.1912520831435789,0.2203802413760819,0.1575516188905932,0.2051551006088942,1653,"Boca Raton, Florida"
50,43.61506152927121,-116.22669526085224,0.7352508123476849,0.562677701056052,0.5236427024099648,0.6614879501760086,0.5482500676956404,0.1641670456560167,0.1916914083462674,0.2215713326359456,0.1645076953560399,0.2165829690572662,2511,"Boise, Idaho"
51,42.37663603893187,-71.135580835965,0.7293320062631559,0.5685701432833247,0.5380820554495744,0.6511346726446993,0.5509325954010852,0.1669791235666185,0.1927714985163822,0.2203163091931042,0.15999287967977927,0.20909934886732776,13548,"Boston, Massachusetts"
52,40.02195687992988,-105.25971551270814,0.7806141532016756,0.5687649611011371,0.5414983542788749,0.6468993117893477,0.5359066427289049,0.1482920465074529,0.185643175413215,0.224193158012717,0.1672553473389184,0.2149416543080308,1141,"Boulder, Colorado"
53,36.986023036649215,-86.44560436300173,0.7057430432208407,0.5676065719360568,0.5214253996447602,0.6771758436944938,0.5802619893428064,0.1728119381959802,0.1908358158479451,0.2342520936027441,0.1672004050516629,0.2110198296772886,573,"Bowling Green, Kentucky"
54,45.67109503816794,-111.06741526717556,0.7706314599483204,0.5671430878552971,0.5246689276485789,0.660327842377261,0.5465116279069767,0.1586272808760312,0.1920965923471729,0.2321018808895388,0.1625742264198247,0.2199628172324879,524,"Bozeman, Montana"
55,27.471597552447555,-82.56294871794871,0.7241922773837667,0.575108353033885,0.5213750985027581,0.6480742710795903,0.5607762017336486,0.1704630619535695,0.1916604185959557,0.233934212282758,0.1744149543429375,0.2231540539063825,858,"Bradenton, Florida"
56,47.59822235701906,-122.65300069324088,0.7695381882770871,0.5385583185316755,0.5139505624629959,0.6630032563647128,0.5533599763173476,0.1621115940108112,0.1884356743410025,0.2260220300317802,0.1658481706174863,0.2219014362519439,577,"Bremerton, Washington"
57,41.18835845588235,-73.19655018382353,0.7241161616161615,0.5756392045454546,0.5222143308080809,0.681344696969697,0.5540956439393939,0.1611980599860999,0.1828747799723784,0.2069026617998201,0.1484164833760425,0.2064332107988718,544,"Bridgeport, Connecticut"
58,36.042342230347344,-95.78722340036563,0.7522012578616353,0.5633254716981132,0.4900550314465409,0.6636006289308176,0.5706367924528302,0.1644815879454049,0.1934044767604915,0.2358766408717409,0.1675419105389553,0.2212262751027223,547,"Broken Arrow, Oklahoma"
59,40.779453875858664,-73.99636755027775,0.7444079092264746,0.5557181329545902,0.5161101537683978,0.6520524367538634,0.5604473294192416,0.16045022948307835,0.19262757938855798,0.2232381397496005,0.16558601374334292,0.2118329515175833,62973,"Brooklyn, New York"
60,25.93237100840336,-97.4897826330532,0.7192241801272639,0.5707293196279981,0.5159079784630445,0.6980543318649045,0.5741250611845325,0.157263658901838,0.1750473045034738,0.2149663095278006,0.1586704282629415,0.1942020456662289,714,"Brownsville, Texas"
61,41.2463,-81.831,0.7177064359441409,0.544019429265331,0.5177216150576807,0.6496281117182756,0.5766545233758348,0.16678037601307,0.1807574650712727,0.2271144986679024,0.1622938585210234,0.200904615658132,554,"Brunswick, Ohio"
62,30.633525567797093,-96.3337577428164,0.7317226130507788,0.57588151907296,0.5348037106342214,0.6576226208147131,0.5321897485801212,0.1677070198102609,0.19809348170127275,0.2309598195404276,0.15875940472639405,0.2138017023477215,1805,"Bryan, Texas"
63,42.91026778970752,-78.84216767863754,0.7436127260981912,0.5685885012919897,0.51031169250646,0.6747012273901809,0.5591327519379845,0.1638490956934316,0.1922667901534678,0.2230273255069275,0.1683211576971758,0.2177177460727187,2701,"Buffalo, New York"
64,34.10145471698113,-83.97482754716981,0.7323779704560052,0.5464434810533076,0.4968288375080283,0.6511319845857418,0.5641859344894027,0.1549581100195264,0.1913301833936145,0.2210163193238499,0.1802463924371146,0.2161317948839028,530,"Buford, Georgia"
65,44.47957387218045,-73.21745432330827,0.7705882352941177,0.5466503267973857,0.5350081699346405,0.6442401960784314,0.57859477124183,0.1588336367314084,0.1883978894258754,0.2254678276618408,0.1580481224217895,0.2032903382858235,532,"Burlington, Vermont"
66,42.31661307420495,-83.4650422261484,0.7352587244283995,0.5485108303249098,0.505001504211793,0.6640719013237063,0.5884852587244284,0.1620698298448195,0.2055995464028199,0.2356341051987054,0.1664037024188377,0.2153707435944044,566,"Canton, Michigan"
67,26.610274067608884,-81.91396073385089,0.7332405549236565,0.5748648407686798,0.5133036331658437,0.6856337639689658,0.5674513065422624,0.1668397152130631,0.1862791551410612,0.22887374385330128,0.16643038773739338,0.2134082297003554,2079,"Cape Coral, Florida"
68,33.14957466051098,-117.22951222337669,0.7499459636053302,0.5640692612457535,0.5255025264983141,0.6613624953676058,0.5534273039117159,0.1557219960863662,0.18999159274379687,0.2257115124242907,0.16263210663483357,0.2172959258787623,3137,"Carlsbad, California"
69,40.01571831764491,-86.08156955725099,0.7098395879957986,0.5510686324177272,0.5148012397982474,0.6436362915168183,0.5639333021574457,0.16664923728167164,0.19199417482295889,0.2304507010213056,0.16922741029492133,0.2159452814467978,1415,"Carmel, Indiana"
70,37.67648143646409,-113.06326629834254,0.6770601851851852,0.5992824074074073,0.536087962962963,0.7181944444444445,0.5268055555555555,0.1685948765757106,0.1773922067749271,0.2160336131466445,0.1523095867064655,0.1987483136910386,905,"Cedar City, Utah"
71,41.98967812995246,-91.66369175911252,0.7254415011037528,0.5415631898454747,0.4953090507726269,0.6540424944812362,0.5701572847682119,0.1741320723085699,0.1919913540604307,0.2340587587377688,0.1708217431567117,0.2129809196262497,631,"Cedar Rapids, Iowa"
72,40.11469287925696,-88.24982953560372,0.7279411764705882,0.5902821234876929,0.5523831873174803,0.6696782436378806,0.527808197747184,0.1555258043260466,0.1889944143294682,0.2186940340993872,0.1572040531729055,0.208923374864169,1615,"Champaign, Illinois"
73,33.397318566552414,-111.84968163996923,0.7449058124799807,0.564256720733513,0.5199704113383403,0.6602203189864065,0.5530751097653761,0.16358373822000144,0.19341306161073352,0.2291294887708694,0.1662924172481564,0.21391885135820768,7081,"Chandler, Arizona"
74,35.9152261496844,-79.07286834986475,0.7426616346447087,0.564977889600488,0.5332037206465385,0.6432220189082037,0.5457456541628545,0.1625001308665185,0.2060915500414137,0.2349249819089729,0.1710492777662905,0.2167798041296785,1109,"Chapel Hill, North Carolina"
75,32.78465681186283,-79.95805273401297,0.762080164765526,0.5863236692015209,0.5443599493029151,0.6662111850443599,0.5343987642585551,0.1633989908794389,0.1957436544847272,0.2258205623883166,0.1675174737941608,0.2201090102528663,1079,"Charleston, South Carolina"
76,35.22967680710074,-80.84136891604354,0.7022615165956023,0.5511911106930859,0.5256275604046485,0.6600919133015635,0.5554549682300811,0.1710179690797412,0.1845792509883072,0.2207352400854141,0.1629227911443832,0.2059395151682067,16449,"Charlotte, North Carolina"
77,38.03347724928366,-78.48977335243553,0.7434172030427151,0.5726667641895845,0.5406426760288668,0.6486614979520188,0.5513580066315584,0.1619569714993183,0.1957789068072145,0.2298762783473515,0.1695691788144053,0.2104143107645115,1745,"Charlottesville, Virginia"
78,35.05297812251393,-85.282723150358,0.7424487594390506,0.5520159115426105,0.5292104908306364,0.6552555285868393,0.5565837378640777,0.1681441952067498,0.1942335550970921,0.2324904304689203,0.1674914054126025,0.2106027897846166,1257,"Chattanooga, Tennessee"
79,39.93577168948278,-75.0868870185354,0.7296943961826339,0.5514329136929345,0.5261786099750143,0.6622441206610579,0.5716747540970692,0.16467628154494116,0.18690096750584834,0.22037643347338265,0.1619118515681009,0.20631544724012654,12273,"Cherry Hill, New Jersey"
80,36.83567330638627,-76.27338226487271,0.743693801834015,0.5658379705678201,0.5137464274455147,0.6717855133002038,0.554506063663716,0.16000669891697114,0.1896531704730861,0.22191044945166677,0.17043782518182277,0.20685050200127644,2014,"Chesapeake, Virginia"
81,41.86566228621003,-87.65190872097827,0.7501916548999473,0.5645083650678191,0.523986279292,0.6604820076162766,0.5523574444111649,0.1608888904550226,0.1904628605107205,0.2230704275638226,0.1632075991595352,0.212814045790511,24206,"Chicago, Illinois"
82,39.74448097281832,-121.83253519313304,0.7239583333333334,0.5278186274509804,0.5295343137254902,0.6424938725490196,0.5767156862745099,0.1745597751482855,0.1836813054975296,0.2205885320907582,0.1771551118301613,0.2093943713383391,699,"Chico, California"
83,32.63074723404255,-117.05680659574467,0.7605311355311356,0.5577152014652015,0.5071428571428571,0.6751144688644688,0.5620879120879121,0.1491939398586824,0.1862018569162469,0.22984492730351,0.1552292512838823,0.2100334507800096,940,"Chula Vista, California"
84,39.13350976177682,-84.50674203833064,0.7313152023629965,0.5825831133735546,0.5478019733534439,0.676293834841629,0.5388346845148315,0.1661425016729499,0.1898914758000191,0.2257470259372915,0.1612709054942818,0.2108642760302288,5583,"Cincinnati, Ohio"
85,36.532074267100974,-87.3476315960912,0.7184027777777778,0.5592708333333334,0.5150694444444445,0.6587847222222222,0.5502777777777778,0.1669182708307937,0.1857637431587554,0.223754632345094,0.1656224206315019,0.2138587891094077,614,"Clarksville, Tennessee"
86,27.9898657960199,-82.74702400497513,0.742728237791932,0.5537685774946921,0.518312101910828,0.6593152866242038,0.5503184713375796,0.1704021128445033,0.1900005591068437,0.2301471747693649,0.167053613931533,0.2186216730620901,804,"Clearwater, Florida"
87,41.48400194805195,-81.65795254329004,0.7359900875979714,0.5662747810050714,0.5259739511295528,0.6736917934532043,0.5529910096818811,0.1645528551380532,0.186844351912324,0.2231705530398899,0.1629966927216207,0.2122003472735774,3696,"Cleveland, Ohio"
88,35.16485426356589,-84.86045019379846,0.7202205882352941,0.586233660130719,0.5185049019607844,0.69640522875817,0.5615196078431373,0.1727487942301487,0.1881902535297134,0.2255391542366908,0.1648218123103023,0.2109868475616069,516,"Cleveland, Tennessee"
89,36.79990686394787,-119.72267218058303,0.7324530714180925,0.5533147859703655,0.49856971304985104,0.6685469249797624,0.5645246204157792,0.1598744534633832,0.18247126923075047,0.21707089019949616,0.16278479012124975,0.2123630501956731,2545,"Clovis, California"
90,38.84389982369535,-104.79992859661496,0.753280598479274,0.5685936350257542,0.5056030782438068,0.6672185430463576,0.5544058130978661,0.1612290233122035,0.1894500260377942,0.2269093803731557,0.1625451218674422,0.2156390346584978,2836,"Colorado Springs, Colorado"
91,38.9449855945122,-92.33788448932928,0.7046483622350674,0.5614081567116249,0.5492694283879255,0.6709938985228003,0.5543272318561336,0.1685284830733156,0.1845112138382001,0.2258614422369294,0.1618428213857033,0.2081262808553594,2624,"Columbia, Missouri"
92,34.029838632162665,-81.01393544362293,0.722309616005163,0.568762100677638,0.5381473862536302,0.671446434333656,0.548533801226202,0.1680332554234527,0.1873594550508505,0.2259854426206651,0.1658216387598776,0.2125622678879548,2164,"Columbia, South Carolina"
93,32.47679565217391,-84.95784748283752,0.7096626063418406,0.563925947409126,0.5221867749419954,0.6762132637277649,0.5297273781902552,0.1665509221100573,0.1873977569411988,0.2204522515950663,0.1691882368612353,0.2102012846358751,874,"Columbus, Georgia"
94,39.20364278350516,-85.92435790378008,0.7323044366608289,0.5498394629305312,0.5135909223584355,0.6690382370110917,0.5661668126094571,0.1712017363035768,0.19421588659551,0.2318745453466829,0.1664762110668923,0.21580737901394,1164,"Columbus, Indiana"
95,40.039411145252494,-83.08420234177123,0.7303412927441492,0.5644091033624317,0.5149101888169799,0.6599976812814444,0.5546232008667298,0.16297714876167882,0.19004792547402286,0.22591919746158542,0.16476352256572038,0.21389161756949968,7194,"Columbus, Ohio"
96,35.40872458745874,-80.59178531353135,0.742320819112628,0.5747298065984073,0.4848549488054607,0.6618316268486917,0.5681527303754266,0.1634672938493086,0.1895250361070471,0.2180298891904634,0.1749720946328782,0.2138893369850707,606,"Concord, North Carolina"
97,35.081732997987935,-92.46502193158952,0.6894790602655771,0.5695011916922029,0.5292815798433775,0.6789879128362274,0.5661389172625128,0.1698373493081552,0.1834399540424383,0.2223593216059719,0.1553499810652924,0.1957506594160341,994,"Conway, Arkansas"
98,36.20666383981154,-85.52690906949351,0.6927083333333333,0.5960675837320574,0.5323464912280702,0.6739932216905902,0.5200109649122807,0.1609949849776613,0.1866632113608317,0.2211227580885627,0.1572512128179263,0.2029899813152294,849,"Cookeville, Tennessee"
99,33.87589080036798,-117.56929880404785,0.7373342803030303,0.5542337436868687,0.5189393939393939,0.6693300189393939,0.5557528409090909,0.1611162235546749,0.1892621133510904,0.2180110730482736,0.1621902573631591,0.2149647952179027,1087,"Corona, California"
100,27.775037519379843,-97.40250015503877,0.7343413978494624,0.5627352150537634,0.4847782258064516,0.661760752688172,0.5661626344086022,0.1630724206196066,0.2043488812594466,0.232994506205223,0.1697753370486315,0.2193503236137213,645,"Corpus Christi, Texas"
101,44.58411056338028,-123.2753102112676,0.7405842230130486,0.5761788256227758,0.5335854092526691,0.6690762158956108,0.5586076512455516,0.1623474868930667,0.1790741494483182,0.2354780280283832,0.1579765281802545,0.2065194778667223,568,"Corvallis, Oregon"
102,34.11389933687003,-86.91007095490716,0.7268582640812558,0.5359533702677747,0.5067232225300092,0.6567693905817175,0.575427054478301,0.1769420068718619,0.2006495966904893,0.2264167049194071,0.1791715237358553,0.2191455961892575,754,"Cullman, Alabama"
103,34.220970201484626,-84.13425323435843,0.7220566708490171,0.5404642409033877,0.523943956503555,0.6382789627770807,0.5559650773734839,0.1723904159214697,0.2006151784621389,0.2300752319639746,0.1758833457876108,0.2083641896753564,943,"Cumming, Georgia"
104,32.78706695788396,-96.80411080918238,0.7464234952416265,0.558139445062415,0.5188661269723561,0.6626176718988176,0.5528583714415194,0.1640389769016406,0.1912016329876593,0.2276675820488924,0.1671789364303895,0.2140868027286424,16597,"Dallas, Texas"
105,37.72556080309307,-122.44556364074312,0.7372894238545598,0.5487244950795754,0.5118551177940621,0.653566796292829,0.5690178811499547,0.15990782428137446,0.1844798978817178,0.21104872478846975,0.15858379414761034,0.203923173265306,11645,"Daly City, California"
106,26.068675822466332,-80.2172790139616,0.7364719265437536,0.5664354986732407,0.5275157758233897,0.6707770154860514,0.5447480252317992,0.15883518143913378,0.18945148217033914,0.2185779276930265,0.16284722349421743,0.20762472554361386,4745,"Davie, Florida"
107,38.55279617691154,-121.73549557721138,0.730541856348002,0.5605399595346484,0.5232043500252909,0.6516186140617097,0.5590857359635811,0.1616408551329655,0.1857565157178274,0.2227936296332885,0.1542729196285023,0.2044263176861952,1334,"Davis, California"
108,39.78533397337759,-84.10393442307387,0.727999126388072,0.6098959211840875,0.5304589940611089,0.7181297549033034,0.5236160059749326,0.1600866063313074,0.19008120379605825,0.22048161038948016,0.16794376909047615,0.21334774307469395,5515,"Dayton, Ohio"
109,42.33717576794443,-83.1206300276327,0.753093871786201,0.5781608117966797,0.5328763491501884,0.6805541639617563,0.5375566596112861,0.1607091352038978,0.19366172253226688,0.22380314042757027,0.16808326375855487,0.2139716589989039,4566,"Dearborn, Michigan"
110,33.20728561034762,-97.1175981406629,0.7682889344262295,0.5589651639344262,0.5238217213114754,0.6731386612021858,0.5713456284153006,0.1615626233954463,0.1909927453547934,0.2217512960402912,0.1601976159301269,0.2074513583198278,1237,"Denton, Texas"
111,41.58938234842646,-93.69294145890348,0.6919290702603229,0.5534027820854786,0.5268291143711792,0.6650645250501417,0.5523682877406282,0.17052730920990172,0.18071376875287332,0.22495766246762433,0.1567951261571309,0.20228722029088136,2732,"Des Moines, Iowa"
112,40.31918453441296,-75.13142226720649,0.7190254820936639,0.5430785123966942,0.506267217630854,0.6624827823691459,0.5885847107438017,0.1734393502737805,0.1955482527175292,0.2312652203446152,0.1676869009452326,0.2102391801640541,1235,"Doylestown, Pennsylvania"
113,40.59886207682329,-111.93879209566714,0.7276768455184124,0.5541949532415771,0.5246248255513549,0.6696595123136377,0.5537142009577704,0.16652015803450512,0.1856070945865008,0.22769333379281384,0.16133534222575205,0.20947593511688997,11556,"Draper, Utah"
114,46.79887555248619,-92.11705041436464,0.7433120265151515,0.5678858901515151,0.505089962121212,0.677527225378788,0.5612571022727273,0.1568488580385305,0.1856135490741501,0.2320832780973979,0.1583770005685532,0.2062027947638456,724,"Duluth, Minnesota"
115,35.98654389926183,-78.90507490230135,0.748160677314404,0.5721864832889677,0.5264991866311742,0.649382579118604,0.5357050428867199,0.1632386156490379,0.1972719724785969,0.2255850358195049,0.1724656584764744,0.2159122388370397,2303,"Durham, North Carolina"
116,42.72872598574348,-84.5228636917402,0.7537227815038177,0.5445862743507226,0.5176266384058559,0.6580798536928361,0.561640118632303,0.15993414172765866,0.19199372034249412,0.23765509531349985,0.16283106498727984,0.2149402852975994,1283,"East Lansing, Michigan"
117,44.80969681397739,-91.5002498458376,0.6965711805555556,0.5569661458333334,0.5186414930555555,0.6673611111111111,0.560720486111111,0.1841523703235074,0.1891034555118754,0.2239906002274145,0.1621366541418243,0.2030983259819717,973,"Eau Claire, Wisconsin"
118,40.54313496729043,-74.42185597849249,0.7458865811412674,0.5446943006284051,0.513483086218038,0.6511581443571229,0.584328699135556,0.16309379986449402,0.19275961849286416,0.22654893485035432,0.16731387404136322,0.2095261762484722,1213,"Edison, New Jersey"
119,35.64132302158273,-97.47827350119904,0.732161296984717,0.5657269723254854,0.5110491532424618,0.6564436183395291,0.5502633209417596,0.1669367607961942,0.1933364079809282,0.2282826185890225,0.1625938208349641,0.2206765217703103,834,"Edmond, Oklahoma"
120,32.7948558573854,-116.9386791171477,0.7499269005847953,0.5553728070175439,0.5135964912280702,0.664327485380117,0.5551535087719298,0.1664101556160373,0.1893325016569289,0.2249577222693196,0.1656033331114498,0.2075742634835507,589,"El Cajon, California"
121,31.76488765331153,-106.460629108749,0.716061733595432,0.5569830571936722,0.5020768978751287,0.6744418702611626,0.5665777403351119,0.1646801074335774,0.1816869924117084,0.2172617494323185,0.1706514673402416,0.2025377672861954,3669,"El Paso, Texas"
122,38.413437179487175,-121.41844911858976,0.7149489795918368,0.5400680272108844,0.4912755102040816,0.6606122448979592,0.5852721088435374,0.1601273995648913,0.1715903504401122,0.2176043178593447,0.1537178423269384,0.1979609074905165,1248,"Elk Grove, California"
123,41.89870110935024,-87.94105507131538,0.6619795836669335,0.5701394448892447,0.5697224446223645,0.6673839071257006,0.5210668534827863,0.1695503123273344,0.1835143428661186,0.2174719167871998,0.1694802899678045,0.1984026757662595,1262,"Elmhurst, Illinois"
124,42.1008672868217,-80.09101286821705,0.7177300695559122,0.5706260032102729,0.5002675227394329,0.6760634028892456,0.5740703584804708,0.1701928380619885,0.1855287783721843,0.2217351648615347,0.1665206035799357,0.2090352582494681,645,"Erie, Pennsylvania"
125,44.05048313748532,-123.1073159811986,0.7631084735576923,0.5421549479166667,0.5060972556089743,0.6561122796474359,0.5834835737179487,0.1644503848570207,0.1934839204516281,0.2246994571297911,0.1644326936482333,0.214927409384687,1702,"Eugene, Oregon"
126,37.9717788976378,-87.53012771653543,0.7208734617442483,0.5673488496522204,0.5073903156768326,0.6623528624933119,0.5546080791867308,0.164660177345384,0.1841262889736005,0.2386715833426206,0.1748244046365165,0.2215977618585944,635,"Evansville, Indiana"
127,38.26233263785395,-122.06182488822652,0.7341755997958143,0.5528968861664114,0.4994895354772843,0.6618810617662072,0.5568529862174579,0.1594096279894707,0.1842341079881398,0.2169603242805802,0.1543565913310825,0.2086733915774494,671,"Fairfield, California"
128,46.882510424710425,-96.80254316602316,0.7136282660332541,0.5674650303510161,0.4990267880707311,0.6616686460807601,0.5505080496173133,0.1745914324771662,0.1907219228439167,0.22129688564175,0.1665637773289022,0.2125550597310717,1295,"Fargo, North Dakota"
129,36.1234611114447,-94.15719417579311,0.7100192711399005,0.5778323014153997,0.5436017141500338,0.6599231772054064,0.5407704436860508,0.16817893289165714,0.18296743243293,0.22870237846755145,0.1605522094131425,0.20076682102996354,2144,"Fayetteville, Arkansas"
130,35.04506341659952,-78.90869379532634,0.7069479080077584,0.5456670822942643,0.505974646716542,0.6650561097256857,0.5577202826267664,0.1714727946709567,0.1948498630958417,0.2165147396628386,0.1691780450105793,0.213089326606258,1241,"Fayetteville, North Carolina"
131,35.1911823109843,-111.64786790299571,0.7440172497570456,0.5757713799805637,0.5348032069970845,0.6871051992225462,0.5551810009718173,0.1580666435840706,0.1862992430383588,0.2303092303600776,0.1514510479952693,0.211700786177169,701,"Flagstaff, Arizona"
132,40.56038881869867,-105.08122665824384,0.7441093817552962,0.5647562689148292,0.5174556852572416,0.6637213575443147,0.5499621703415477,0.1726209678890207,0.1913126863820003,0.2249544478041711,0.1620997676324531,0.2131721711443477,1583,"Fort Collins, Colorado"
133,41.12537519025875,-85.11673401826484,0.7308620239958268,0.5511215440792906,0.4975873761085028,0.6616784037558685,0.5719711789254043,0.1687838001783707,0.1879289159145565,0.2266642314475667,0.1622509666478178,0.2060109955714456,1314,"Fort Wayne, Indiana"
134,32.76229978482003,-97.32243057511738,0.7223157549385274,0.5570002762812544,0.5107274830777732,0.6614043721508496,0.5637864345904131,0.1658912024825743,0.1896553059721789,0.2245568754659276,0.1710322814294283,0.213053944343134,5112,"Fort Worth, Texas"
135,35.92839458483755,-86.85943898916966,0.7448398028342575,0.5640403573629081,0.5189463955637708,0.6443699938385706,0.5403573629081947,0.1540686458798583,0.1935516925241594,0.2394215132567081,0.1566413075129356,0.2249254406361774,554,"Franklin, Tennessee"
136,39.39915439624853,-77.41932262602579,0.7393200962695547,0.5524468511833133,0.491250501403931,0.6563377456879261,0.5799488567990373,0.1650423124074852,0.1976602082230305,0.2245757150686831,0.1757527902682266,0.1999532824244352,853,"Frederick, Maryland"
137,38.29206990553306,-77.48385721997302,0.739875116713352,0.5423961251167133,0.509891456582633,0.6666666666666666,0.5695028011204482,0.1686569596014294,0.1964500770141007,0.2341762035698073,0.1789737836689124,0.215643328634577,741,"Fredericksburg, Virginia"
138,29.6453617522374,-82.36257588318416,0.7590817252185387,0.5675923635164111,0.5305438726702952,0.6533687943262411,0.5546346693056243,0.1612737167156221,0.1966741929293916,0.2316819881783931,0.1638967667299623,0.2175740137307521,2123,"Gainesville, Florida"
139,33.53836274153581,-112.16396062221253,0.7310342487421034,0.5603584454402549,0.5057870833653852,0.6562782407510245,0.5572958582628925,0.16563042546307727,0.19330878529551251,0.23016816159917133,0.17102664223386968,0.21355318483450655,13742,"Glendale, Arizona"
140,41.5859180952381,-85.86199396825397,0.6335075026795284,0.5143354769560557,0.4842912647374062,0.6419815112540193,0.576400053590568,0.1693752096799348,0.1606656916681498,0.2016739004229333,0.14970406116356,0.1822816948282383,630,"Goshen, Indiana"
141,42.9285,-83.6332,0.705746644295302,0.547678970917226,0.5327880313199106,0.6746015100671141,0.5444980425055929,0.1809423845703517,0.1899877032670852,0.2153675088400745,0.1660715520692195,0.2145296865488028,601,"Grand Blanc, Michigan"
142,39.074405526315786,-108.5422827631579,0.7321231211317418,0.5696286472148541,0.5184294871794871,0.680868700265252,0.5546253315649867,0.1667147583923654,0.1889251560205559,0.2307157710419224,0.150556321172692,0.2148001346690556,760,"Grand Junction, Colorado"
143,42.96466482530689,-85.65384905571294,0.7325987475915221,0.5625100353243416,0.513728323699422,0.660394588953115,0.5618175979447655,0.1666626875526113,0.1911163959655848,0.2253467427833324,0.1609218481514351,0.2051390522457738,2118,"Grand Rapids, Michigan"
144,40.40709035916824,-104.7438786389414,0.7294471153846154,0.5712339743589744,0.5052483974358974,0.6660657051282052,0.5659455128205129,0.1619508494605341,0.2008669453017411,0.2200882469261375,0.1611320298773068,0.2134992486166485,529,"Greeley, Colorado"
145,44.51314664031621,-88.02697615283267,0.6998156836461126,0.5805965147453083,0.5227323503127792,0.6660243521000894,0.5404099642537981,0.1700959792481222,0.1966985000431655,0.2207694834151322,0.1596580979558138,0.2126568782061387,759,"Green Bay, Wisconsin"
146,36.06892873239437,-79.81401881690141,0.7322485925063094,0.5651693845855174,0.515215492137449,0.6702218015919239,0.5509609784507863,0.1625023231722617,0.1776543162958325,0.2149694290064393,0.1569590237450741,0.2053091662835262,1775,"Greensboro, North Carolina"
147,35.60049159482759,-77.36259396551725,0.7109290357529794,0.5980949801372336,0.5468129288551824,0.6950388226796678,0.5215104730949801,0.1603187583914872,0.1773676824484541,0.2239657470592357,0.1504366209996039,0.2015188668844507,928,"Greenville, North Carolina"
148,34.84635221238938,-82.3726342182891,0.72625,0.5624358974358974,0.5272275641025641,0.6558493589743589,0.5598557692307692,0.1743027536791224,0.1907217818865221,0.2346569919872631,0.1667353343903339,0.2102999760374602,1356,"Greenville, South Carolina"
149,45.49487304860088,-122.4160325478645,0.7101476476476476,0.5353791291291291,0.4793230730730731,0.6505568068068068,0.5655655655655656,0.1744781067823061,0.1782663342061175,0.2012306839348591,0.1553378014713803,0.1965156678862206,679,"Gresham, Oregon"
150,39.42236666666667,-84.58406601307189,0.7090837621497998,0.5697898799313894,0.5182961692395655,0.6775657518582047,0.5676100628930818,0.1744201728705362,0.190566548508864,0.2271045691923303,0.1723409379009985,0.2138967996731151,612,"Hamilton, Ohio"
151,37.065963087516806,-76.43600851001091,0.7367371139928611,0.5556781117988014,0.5016672670312518,0.6716745259848709,0.5627358204800734,0.1634118826167108,0.1912992597853019,0.22913550278066414,0.1652208143103858,0.20657626798659295,1847,"Hampton, Virginia"
152,40.2779876146789,-76.85440091743119,0.7362093815513627,0.5692479035639413,0.5079599056603774,0.6683700209643606,0.5438613731656184,0.1716414676131946,0.19424700374662,0.2245191403097192,0.162521762346847,0.2139465934247995,654,"Harrisburg, Pennsylvania"
153,38.45256039142591,-78.86233625349487,0.6969590368980614,0.5733661663539713,0.5785842714196373,0.6721388367729831,0.537972951844903,0.1670284703307893,0.1759170071127503,0.214315146977412,0.1489104354820478,0.1875135739078304,1073,"Harrisonburg, Virginia"
154,41.76138643410852,-72.69301976744185,0.7570833333333333,0.5576111111111111,0.5303888888888889,0.6602777777777777,0.5672222222222223,0.1589215863063464,0.2022371005895511,0.2181331883174186,0.1735603322861604,0.209085018352277,774,"Hartford, Connecticut"
155,36.02537804878049,-114.98984506892894,0.757360959651036,0.5537531806615776,0.5118820428934933,0.6626681206833878,0.5531624863685932,0.1567805801607023,0.1846958952379155,0.2242748972824155,0.1639381312523844,0.2147294065799829,943,"Henderson, Nevada"
156,25.878865774156,-80.31410966239814,0.7566050543024228,0.5523966165413534,0.4881996658312447,0.6592522974101922,0.5497598162071846,0.156715530918003,0.1951765143134504,0.2260984530704677,0.1729254804280619,0.2221715933245716,859,"Hialeah, Florida"
157,35.74118452380952,-81.33336241496599,0.7087986827033218,0.5550186139747995,0.5206901489117984,0.6708190148911799,0.5637528636884307,0.1648747021958063,0.1830505457038832,0.2160953145062509,0.1529194906191786,0.2015180705687161,588,"Hickory, North Carolina"
158,35.98141093951094,-79.99885212355213,0.7146915584415584,0.6040313852813853,0.5710497835497835,0.6903950216450216,0.5170725108225108,0.1622241958097996,0.1845019418327412,0.2254763016596755,0.1500849587836555,0.20209547914856,777,"High Point, North Carolina"
159,42.082844214526006,-88.0738756110577,0.7064428564259186,0.5640399836538048,0.5373548647854203,0.6580138476649318,0.5805935308857056,0.1665147256298749,0.18909355518478022,0.22006465015703225,0.15718178177892256,0.19873671829487533,1441,"Hoffman Estates, Illinois"
160,42.80757576628353,-86.0697504789272,0.6837597865326561,0.5714340601569429,0.5220634383426048,0.6634896127265235,0.5542815240565065,0.16183829550633416,0.18326436696597903,0.22540248541382724,0.1494981679386621,0.1953687023529307,1108,"Holland, Michigan"
161,21.314688267716534,-157.8443324409449,0.7409755770263017,0.5619883923778851,0.5148450080515298,0.6663982823403113,0.547873054213634,0.1637271328893581,0.1800711416815269,0.2213586465913809,0.159445299380727,0.2074915657677753,2540,"Honolulu, Hawaii"
162,29.75892147760116,-95.3765635175819,0.7441875733794723,0.5535296813528601,0.5131259140250056,0.6604371356773568,0.5549728109744794,0.1642986047170259,0.1940238074962231,0.2278779494526885,0.1676720251807748,0.2143427142007342,16608,"Houston, Texas"
163,34.73257464315701,-86.5863174643157,0.7308812684365782,0.5385693215339233,0.5109697640117995,0.6630162241887906,0.5754424778761061,0.1751307756844444,0.1995423661852209,0.2332080370182636,0.1609010983515772,0.2142465096745827,1191,"Huntsville, Alabama"
164,39.775677027572286,-86.161234001345,0.7099221926258237,0.5655375251179962,0.5154855367073228,0.6691171316416655,0.5572076966213374,0.1710353458772652,0.1875948092324423,0.2238133509861601,0.1610859933822709,0.2078917338799874,7435,"Indianapolis, Indiana"
165,41.64692889518414,-91.52731458923512,0.7242857142857143,0.5974404761904761,0.5498214285714286,0.6622916666666667,0.5314285714285715,0.1784052721765943,0.1993176705834152,0.219885299287999,0.1710501324186251,0.2157406176974707,706,"Iowa City, Iowa"
166,32.84856649323621,-96.95988033298649,0.7442645992020311,0.5569232861806311,0.4935845121508886,0.6748277112803772,0.5617519042437432,0.1627910250525128,0.1913193149057386,0.2248048413760815,0.1608475106685852,0.2156199129347077,961,"Irving, Texas"
167,42.44447765531062,-76.49250280561122,0.7553680981595092,0.5763249829584186,0.5166794478527608,0.6432344921608726,0.5521046353101569,0.1639484652804731,0.1929430535362944,0.2398185856704899,0.1648640969933893,0.218587725729323,998,"Ithaca, New York"
168,32.30802305246423,-90.19960572337042,0.7308484349258649,0.5559102141680395,0.5039984898407468,0.6786792970895112,0.5632207578253706,0.1717836632474403,0.2004971517303499,0.2251891329954118,0.1651899139818252,0.2147811528579376,1258,"Jackson, Mississippi"
169,30.320621796407185,-81.6526458982036,0.7424488010702891,0.5550774415972007,0.5064191622928887,0.6646084182360811,0.5540611814345991,0.165974568490936,0.1952517554962042,0.2283670142121023,0.1715041607956108,0.2174066991789344,3340,"Jacksonville, Florida"
170,36.32197086330935,-82.37018776978417,0.7228708791208791,0.5545253357753357,0.4943910256410256,0.6722374847374848,0.5885989010989011,0.1661812919023952,0.1972167895971856,0.22837021572888,0.1655374583694186,0.2070663324676508,556,"Johnson City, Tennessee"
171,41.541849012567326,-88.10857989228008,0.711602079395085,0.5510396975425331,0.4944076874606175,0.6767879647132955,0.5985349716446124,0.1661429818012566,0.184786149034023,0.2133893326708093,0.157095104253387,0.1940163092822686,557,"Joliet, Illinois"
172,42.28669456066946,-85.6071630753138,0.7425053533190579,0.5628345824411135,0.5317630264097074,0.670347073518915,0.5635483583154889,0.1712062716229385,0.1852784100394157,0.2281677186935734,0.1577560813508272,0.2150993944781439,956,"Kalamazoo, Michigan"
173,39.09951798498065,-94.61378406792119,0.7367022531096223,0.5602538614974377,0.5179241690255736,0.6640176606681696,0.5475090566013666,0.16831115934282687,0.19181490656575975,0.2256995560048339,0.16506655246005708,0.21345062637472756,5897,"Kansas City, Kansas"
174,29.75762688172043,-95.8194414974114,0.7342082467082467,0.5520963270963272,0.5076056826056826,0.6498094248094248,0.5679487179487179,0.1594503538093012,0.1962550337618212,0.2324098439718416,0.1721443044476599,0.2117699140361804,2511,"Katy, Texas"
175,33.98543061477059,-84.58285326958895,0.7542167734772711,0.5562836143527112,0.5138236907227776,0.6680035997739837,0.554066937227708,0.15380130746359685,0.19624063881631348,0.2291736227541882,0.15960810535834952,0.21595764882841528,1908,"Kennesaw, Georgia"
176,41.1420465408805,-81.34421937106919,0.7043172690763052,0.5609660865684962,0.5243473895582329,0.6640729585006694,0.590975011155734,0.1633634361405838,0.1795571996488746,0.224711894922462,0.1520930532175463,0.2053793828863698,795,"Kent, Ohio"
177,41.479016891891895,-71.53269020270271,0.678729954180985,0.6003364833906071,0.5954324169530355,0.7021048109965635,0.5435638602520046,0.1658350781470577,0.1612986659825132,0.2084546843708359,0.1402690717845003,0.1781074289350992,592,"Kingston, Rhode Island"
178,28.294234658599827,-81.43626681071737,0.7330274544911967,0.5569606087735004,0.513466129513578,0.6714786630856461,0.5564197254550881,0.163933494908585,0.1879889069649674,0.2256326750801602,0.1670610349661041,0.2069311909634519,1157,"Kissimmee, Florida"
179,35.95276220275344,-83.9544395494368,0.7056000712250713,0.5584045584045584,0.5195690883190883,0.6617165242165243,0.5631855413105413,0.1756175623622427,0.1919765193948823,0.2232573976091643,0.1674363920355173,0.211581519810477,2397,"Knoxville, Tennessee"
180,43.80767633872976,-91.23177596513077,0.7142290609137056,0.5929039763113367,0.5166560913705583,0.6812076988155668,0.5491486886632826,0.1604487427363617,0.1851509109359077,0.2329253101010651,0.1581364080268867,0.2084912629547755,803,"La Crosse, Wisconsin"
181,30.20395140758874,-92.0430624235006,0.7236704355108877,0.5409600083752094,0.52258689279732,0.6594692211055276,0.5684935092127303,0.1653389825817848,0.1849097287805049,0.2282648069780243,0.1664667198807263,0.2071996398849154,817,"Lafayette, Louisiana"
182,42.17634764757108,-87.84105661225915,0.685513840098881,0.5801251362054385,0.5729931551684881,0.6723621377341921,0.5332392092766067,0.16487462742387984,0.175352472400949,0.21840121387334643,0.14594101548477206,0.1938279419332268,1430,"Lake Forest, Illinois"
183,42.37415,-88.04755,0.6672318633778188,0.5519094487929971,0.5417885379784559,0.6746210106470463,0.5592673675665079,0.1646733258535325,0.16194659255799027,0.20694337356123338,0.15490402871995518,0.18677431125665106,1466,"Lake Villa, Illinois"
184,28.0312051969824,-81.94854534786253,0.7273518518518519,0.587962962962963,0.5412777777777777,0.6900925925925926,0.5200740740740741,0.1720021290046867,0.1886788724132293,0.2294214721686971,0.1643717315336398,0.2230056392091089,1193,"Lakeland, Florida"
185,34.63420721616162,-118.1134568,0.7189707228557356,0.5483669364519537,0.4742457812892073,0.6793537776910374,0.5828154574926503,0.1604714118919247,0.18045674346120139,0.2143402951594232,0.1615091940342342,0.20193086477476013,1950,"Lancaster, California"
186,40.03660030303031,-76.32316484848485,0.7388760288065844,0.5679333847736625,0.5186149691358025,0.6685956790123457,0.56372170781893,0.1651326336172104,0.1957819512848588,0.2337153552477541,0.1636209923724995,0.2184738597170498,660,"Lancaster, Pennsylvania"
187,27.53885505857295,-99.49652151224709,0.6989369779802581,0.542402239939256,0.4935222095671981,0.6737851176917237,0.5964075550493546,0.1572133045779766,0.1744175728061239,0.2094611659159932,0.1629817215894441,0.1917827390405978,939,"Laredo, Texas"
188,32.302197306397304,-106.7789531986532,0.733347876672484,0.5744982547993019,0.5195607911576497,0.6740110529377544,0.5586823734729494,0.1705235544328241,0.1947688337448975,0.2204910837763255,0.1671957402957225,0.2133177039946707,594,"Las Cruces, New Mexico"
189,36.16630781662617,-115.13238300411956,0.7407314764737696,0.5469826032089418,0.5019695330809446,0.6608910221741482,0.5682688840814855,0.1595456578207541,0.1907924495658539,0.2234457473538255,0.1662712987069922,0.2137339010571104,9467,"Las Vegas, Nevada"
190,38.963962987886944,-95.25551265141318,0.7578015427769986,0.5552828424497429,0.5160121552127163,0.664767414679757,0.5827197288452548,0.1560997549879304,0.1970391196182855,0.2368411095025953,0.1575187919136366,0.2113290894146444,743,"Lawrence, Kansas"
191,41.08517133406836,-111.95626725468576,0.6968632958801498,0.562687265917603,0.5254681647940075,0.663319288389513,0.5466292134831461,0.159365384213175,0.178947839562203,0.218676001823545,0.1569293343570452,0.1996179214303818,907,"Layton, Utah"
192,29.518214960629923,-95.09767795275592,0.724105461393597,0.5571641556811049,0.5133396107972379,0.6523854362837413,0.5727401129943502,0.1630093538540394,0.1973503724104376,0.2460848728296226,0.161512476574984,0.2120669990844876,635,"League City, Texas"
193,37.99972491389208,-84.46540206659013,0.7350621890547264,0.5572636815920398,0.5176741293532338,0.6604353233830846,0.5708582089552239,0.1682966955739866,0.1966000905486103,0.2314696175564923,0.170136335301891,0.2136871794264786,1742,"Lexington, Kentucky"
194,40.743577430555554,-84.14424288194444,0.6504100761570005,0.570298769771529,0.5269844756883422,0.6748681898066784,0.5553236672524898,0.1780463053879483,0.1711884436859385,0.2211167467905401,0.1514718790741639,0.1980295365192367,576,"Lima, Ohio"
195,40.79523005489479,-96.67107218664226,0.7071159283694628,0.5553821080741439,0.507088438579956,0.6641238611372918,0.563246151429469,0.1757485238317293,0.1835804333679103,0.2204701536355899,0.1610807272595218,0.2033091323509558,2186,"Lincoln, Nebraska"
196,34.75393508663367,-92.35513558168316,0.7217431434599156,0.5614715189873418,0.5062236286919831,0.6669567510548524,0.5627373417721518,0.165812132319585,0.1897015780761799,0.2228187921951048,0.1653733312066974,0.2076684787435236,1616,"Little Rock, Arkansas"
197,41.75980376051459,-111.81750826323602,0.6952573158425832,0.6115560881264717,0.5607025731584259,0.6832008913555332,0.4907711066263034,0.1659705965889524,0.1760536756011702,0.2246513228981942,0.1489295956029356,0.2045867994456033,2021,"Logan, Utah"
198,40.1564984375,-105.09298372395834,0.7497783687943262,0.5675975177304964,0.505291445035461,0.6623725620567377,0.5624722960992908,0.1618247713691313,0.1858902559369381,0.2257101839185052,0.1570676966495169,0.2009755395280991,768,"Longmont, Colorado"
199,38.24392822704361,-85.75770238877931,0.7372130029552171,0.5554576797757066,0.5191947033416685,0.6605289080851708,0.5720713040842615,0.16814774281514,0.1915846854508979,0.2242698577867732,0.167934964106009,0.2119197580130357,4563,"Louisville, Kentucky"
200,40.40505224089636,-105.09324327731092,0.6968779677113011,0.5449905033238366,0.5106540835707503,0.636633428300095,0.5698896011396012,0.1733527152342251,0.1806742380277923,0.2255562340460011,0.1632493842895143,0.1943071408314527,714,"Loveland, Colorado"
201,33.577395768880805,-101.86765909918108,0.6972338447233845,0.561386176971951,0.5206686812335347,0.6683325584999225,0.5605241748024175,0.1666457347142325,0.1799451559343445,0.2225592864626675,0.1649011664671954,0.1989356432735497,2198,"Lubbock, Texas"
202,37.389756525652565,-79.20280891089108,0.7356867283950617,0.586207561728395,0.5333912037037037,0.6770833333333334,0.5336033950617284,0.1601284282696403,0.1883577199797141,0.2252376772317752,0.1575271534947148,0.2006822375711642,1111,"Lynchburg, Virginia"
203,32.83763778735632,-83.66070100574713,0.7281371124031008,0.5609859496124031,0.4921269379844961,0.666515261627907,0.5601986434108528,0.1672500097446753,0.1951175246344504,0.2304789411856477,0.168538141128366,0.2152532296665265,696,"Macon, Georgia"
204,43.07020982732351,-89.41201371254444,0.7333074868613767,0.5751216938054623,0.5426466787283536,0.6700428620659947,0.548639829413285,0.1648688455495937,0.193018484051017,0.2278106126042187,0.1620000766265999,0.2083520620792639,3938,"Madison, Wisconsin"
205,30.15962918088737,-95.7376696245734,0.6357070267131243,0.5496152729384437,0.5268945993031359,0.6453252032520326,0.5480908826945413,0.1789558089747838,0.1745678500883279,0.2193191557095372,0.1726046858455076,0.2008404220689124,586,"Magnolia, Texas"
206,44.1554652173913,-93.99652260869566,0.6790201005025126,0.5863955192629815,0.5304909966499162,0.6894891122278057,0.5372435092127303,0.1658031228786964,0.1753219727713319,0.2080920293671368,0.1469962314299678,0.2008416071081813,805,"Mankato, Minnesota"
207,45.108528438948994,-93.45758948995363,0.7012790084388185,0.5332608122362869,0.498978111814346,0.65625,0.5656315928270043,0.1566935243602646,0.1891056309606888,0.2263284106888276,0.1528502965444434,0.1929344653389162,647,"Maple Grove, Minnesota"
208,40.07702866242038,-80.77191401273885,0.7254070088300221,0.5677083333333333,0.4811672185430463,0.6737030905077263,0.5959919977924946,0.1667084003818361,0.195921837174971,0.2384626317786674,0.1739592267302862,0.2193074364593349,628,"Martins Ferry, Ohio"
209,39.33970746554125,-84.35674073463477,0.6788179742398774,0.57373550378297,0.5365303399433731,0.6718376434385038,0.5448653305982182,0.17856520861862712,0.18379046701531676,0.2270139693434906,0.16479282682577964,0.20612562779596222,1916,"Mason, Ohio"
210,40.80625290423862,-81.47055635792778,0.7118837084673098,0.5557006966773848,0.508875937834941,0.6810691318327974,0.5690983386923901,0.1681527939199868,0.1839052504104145,0.2307518160800274,0.1628074331452551,0.2187393859560481,637,"Massillon, Ohio"
211,33.45914187866928,-84.13185088062623,0.7455847050754458,0.5574845679012346,0.5041580932784636,0.6847993827160493,0.5631430041152263,0.1614607118821946,0.1930447649171872,0.2246880392663272,0.1714801927910742,0.206336081512671,511,"McDonough, Georgia"
212,28.088321547799698,-80.63684188163884,0.7498717948717949,0.5732371794871796,0.515673076923077,0.6748076923076923,0.5541025641025641,0.166099879269057,0.1941746719566994,0.2296857033942489,0.1547328212120958,0.2151186903234459,659,"Melbourne, Florida"
213,35.149421772834515,-90.03035284799462,0.7432559689383402,0.560826668984701,0.5139082058414465,0.670121986555401,0.5541405887807139,0.1682280228861,0.1925367954143341,0.2260750684096076,0.1683447616815027,0.2137035946652448,2967,"Memphis, Tennessee"
214,43.24258803149606,-87.96759826771654,0.6847222222222222,0.6177168021680216,0.5544376693766938,0.6809620596205962,0.5365853658536586,0.1740506560349838,0.182579291466334,0.232434467080031,0.1670446322471893,0.2043135098309142,635,"Mequon, Wisconsin"
215,37.28499955357143,-120.4932617559524,0.6865573152337858,0.528657616892911,0.4758986928104575,0.6649698340874811,0.5856586224233283,0.1621537858584951,0.1749752044541407,0.2026148816933724,0.1610237158135515,0.1873141292502073,672,"Merced, California"
216,43.59901563068537,-116.48902898651144,0.7254292762401096,0.5528359564145571,0.5087214180900893,0.661294656673556,0.5698778689852397,0.16541451182594114,0.18650554821918996,0.23459314180315138,0.1628955432944288,0.21133637147211756,1526,"Meridian, Idaho"
217,25.77390372413793,-80.20895243349753,0.7506299587972896,0.5605760717812511,0.5359757550992611,0.6575492900194095,0.5416389995573263,0.1591409510428092,0.1916241155886845,0.2237562674954217,0.1669706490784568,0.2125671257957617,10150,"Miami, Florida"
218,37.46497551813471,-77.64756670984455,0.7187362030905078,0.5679359823399559,0.5180739514348786,0.6608443708609272,0.5464679911699779,0.1702118489357641,0.1930954757485047,0.2325338826295933,0.1640839898597404,0.2177495956969456,772,"Midlothian, Virginia"
219,21.428981461126472,-158.01725597192564,0.7078447346957628,0.5596896337245783,0.5164937684399429,0.6706370278557903,0.55224166407564,0.1665575137308256,0.1727108822340053,0.21692611404176343,0.16022684519695174,0.1983177821265223,1661,"Mililani Town, Hawaii"
220,43.047281542322615,-87.93410821355236,0.7259728773584906,0.561905463836478,0.5298987814465409,0.6798250786163522,0.5606672562893081,0.165242807703813,0.1862641295939445,0.2166373476447968,0.1589297077283881,0.2056683032560934,4383,"Milwaukee, Wisconsin"
221,44.95274589064879,-93.1104300560172,0.7051123885925806,0.5563327681758504,0.5182659247835752,0.6665405684385507,0.5541135558352359,0.16941887828545102,0.1849514408591718,0.22000111361178032,0.1551421850231175,0.2013546315006142,16434,"Minneapolis, Minnesota"
222,46.865952981260655,-114.01993015332197,0.7537053841500303,0.5497580157289776,0.4934966727162734,0.6541137326073806,0.5714609800362976,0.165117253144878,0.1896819292037049,0.2282632131637916,0.1505774775268377,0.2123162081955895,587,"Missoula, Montana"
223,30.688292943770676,-88.08384454244764,0.7226710128495843,0.5820578231292517,0.5449971655328798,0.6834372637944066,0.5339663643235072,0.1734133563350473,0.1945075283370637,0.2286603321684945,0.1640635396175172,0.209285924783374,907,"Mobile, Alabama"
224,37.66546315217391,-120.98330369565215,0.731300477239354,0.559792584434655,0.4834342878120411,0.6700624082232012,0.5763582966226138,0.1694873894546155,0.1997504640252597,0.2321055610078314,0.1744576765591754,0.2042392423736964,920,"Modesto, California"
225,32.56112907563025,-92.08022722689076,0.7513792102206737,0.5804660278745645,0.5026495354239257,0.689496225319396,0.5546965737514518,0.1646030170273322,0.1843489817690587,0.2323127364789214,0.172446786455114,0.2052868968806845,595,"Monroe, Louisiana"
226,32.36876842105263,-86.2507966819222,0.7199571883711668,0.5707138590203107,0.5020410195141378,0.6769464356829947,0.5295698924731183,0.1685629631530891,0.193610949304885,0.2302469807816965,0.1731614532945205,0.2283812461958808,874,"Montgomery, Alabama"
227,35.58138914858097,-80.85282754590986,0.6978425266903915,0.5598680308422301,0.5266533214709371,0.6564724199288257,0.5471900948991696,0.1741098589490721,0.1858817867713643,0.2347272441667762,0.1605100727143838,0.2072451834120288,599,"Mooresville, North Carolina"
228,33.93104984177215,-117.22487705696204,0.7240348015225666,0.571200380641653,0.4938825448613377,0.6763866231647635,0.5606307775965199,0.1624251882525818,0.183510823040652,0.2222400057790598,0.1666253106821138,0.1979866456465867,632,"Moreno Valley, California"
229,39.630379213483145,-79.94010749063669,0.7041429475015812,0.5727783048703353,0.5252609108159393,0.6675363693864643,0.5879981024667932,0.1719273317729342,0.1975206722254519,0.2277403282998151,0.1636366118653512,0.2125282254586126,534,"Morgantown, West Virginia"
230,37.41596870810923,-122.09382555740869,0.7479683194687379,0.5588213963502973,0.5117334905922503,0.6425168879376306,0.5468024506189418,0.15878244843225908,0.19364030723351414,0.2218522255765266,0.1632862378437713,0.21063751354575788,15463,"Mountain View, California"
231,40.20603125,-85.41611116071428,0.7212837837837838,0.5609867680180181,0.5091497747747749,0.672825168918919,0.5856559684684685,0.1721958173009514,0.1867835781340666,0.2312415853581954,0.1579644114710006,0.2076530098336835,672,"Muncie, Indiana"
232,35.85430871040724,-86.41472692307693,0.7287558004640371,0.553315931941222,0.5073230858468677,0.6623163186388243,0.5783062645011601,0.1706783818440525,0.1943664151774272,0.227919888560454,0.1604130889652618,0.2121740079016625,884,"Murfreesboro, Tennessee"
233,33.53226935825397,-117.16296317383332,0.741940793801142,0.5571371720998763,0.5130836095982318,0.6681834925145368,0.5570463993474886,0.16067811753167088,0.1897495940029893,0.22317811351493075,0.16254100231919588,0.2101511041047694,1168,"Murrieta, California"
234,42.95534417242392,-88.182613904731,0.6752731901846927,0.5683863583909022,0.5538109916020164,0.6694036828384241,0.5574702582340629,0.17384889221804084,0.18564587651845335,0.2200031339471438,0.15836420775416882,0.2014485142830857,1138,"Muskego, Wisconsin"
235,33.72456957123098,-78.9586225449516,0.7117860486891386,0.5356975655430712,0.5043890449438202,0.6533239700374532,0.5875760767790262,0.1685359524608292,0.179551245310233,0.2248688633878769,0.1752924127833358,0.2130551843765189,723,"Myrtle Beach, South Carolina"
236,26.146728368794324,-81.75392564102565,0.7049364681877203,0.5524253385271749,0.5152337228714524,0.6648465034316454,0.561027638657021,0.1718405319709348,0.1917280135831575,0.22981911462526,0.1599568669424112,0.2109569536207924,1833,"Naples, Florida"
237,42.73947554671968,-71.47924433399602,0.7236750348675035,0.5971059972105998,0.5142520920502092,0.6667102510460251,0.5523448396094839,0.1636775172484937,0.1864588304415547,0.2149442434737647,0.1629258905565151,0.2064234272126641,503,"Nashua, New Hampshire"
238,36.15207162438625,-86.78123105564649,0.7592461317650354,0.5616510887068543,0.5367613596583352,0.6668810824056571,0.5520461387663655,0.1626482986614194,0.1969954268483228,0.2276482864955911,0.1651068508754508,0.2125424405514494,4888,"Nashville, Tennessee"
239,41.31645372405373,-72.92755006105007,0.759349978929625,0.5804098187947746,0.5286557100716393,0.6556573957016435,0.5564686051411716,0.1580646669180622,0.1828920170155001,0.2279328651577951,0.1613625770685882,0.2092578417565354,819,"New Haven, Connecticut"
240,29.95264389183969,-90.09197498792854,0.758175630810093,0.5649692895086321,0.5593563247011952,0.6647161354581673,0.5457856075697212,0.1617402498037096,0.1975984671190804,0.2253432496151176,0.1563141016205437,0.2115382682654294,2071,"New Orleans, Louisiana"
241,39.68172723463687,-75.72875824022347,0.7160953800298062,0.5693616492796821,0.5416666666666666,0.6575074515648286,0.5538375558867362,0.1652631659608399,0.1918548510125393,0.2288724932341236,0.1614892854984274,0.2149764737571118,716,"Newark, Delaware"
242,45.31017533577534,-122.96701465201464,0.6430538555691554,0.5265197878416973,0.5206803345573235,0.6599602203182374,0.5568645450836394,0.1695341211748756,0.1803985678897895,0.212996669151816,0.1525577119513231,0.1907611993655991,819,"Newberg, Oregon"
243,35.211788010899184,-97.46023882833788,0.7568860877684407,0.5510912698412699,0.5087243230625584,0.6611227824463118,0.5745798319327731,0.1524715428892587,0.1990187490610631,0.2273837157712913,0.1609880237104322,0.2104699193797638,734,"Norman, Oklahoma"
244,38.5682,-89.8965,0.6954436450839329,0.5553806954436451,0.5232688848920863,0.6602967625899281,0.5595023980815348,0.1772387488549792,0.1948791364740434,0.2375618977199917,0.1707046995719998,0.2138724763273082,575,"O'Fallon, Illinois"
245,29.161471445086704,-82.143327283237,0.7366267465069861,0.5704341317365269,0.4933383233532934,0.6777195608782436,0.5498502994011976,0.1656486396736568,0.1964868434670291,0.2322834432254105,0.1702196284776569,0.2191334721777436,865,"Ocala, Florida"
246,41.2246454384411,-111.96813206377324,0.7412488708220416,0.563403342366757,0.5240138512496236,0.6683792532369769,0.5581338452273411,0.171544241028306,0.1941607086758804,0.2261702007860037,0.1696046236831059,0.2143892449943265,1129,"Ogden, Utah"
247,35.469267117281696,-97.5205906101571,0.7369684177611007,0.5562851782363978,0.5084193245778612,0.6731003752345216,0.5636100687929956,0.1686008773166207,0.1930450916840223,0.2314641897699439,0.1631948651322445,0.2099833129500616,2737,"Oklahoma City, Oklahoma"
248,38.91146123928871,-94.73754737883141,0.7140460982629637,0.5531741835938473,0.5272933925888418,0.6609622748230728,0.5575471682885953,0.1710916624131735,0.1917434253902461,0.2269604172210018,0.16453958477926,0.2073443994972861,1931,"Olathe, Kansas"
249,47.02716380597015,-122.8675089552239,0.76011174063582,0.5484143846395971,0.5086559647466162,0.6588369531004092,0.5633852691218131,0.1618572527520914,0.1910415049399784,0.2266368661626174,0.1555499455557418,0.2246240644053889,1072,"Olympia, Washington"
250,41.25878265231221,-95.97298881820406,0.7244710708117444,0.5659974093264248,0.5175464162348877,0.6712165371329879,0.5547333765112263,0.1716676735082332,0.1936031672482941,0.225866401646668,0.1632531410362513,0.2105678686788931,4087,"Omaha, Nebraska"
251,40.27103274723333,-111.67903732174094,0.7436201517450197,0.568009298823424,0.5444574939506837,0.6794822353344088,0.5216077818533313,0.1636875143752825,0.18914938054793312,0.22905321531618872,0.16027690666459332,0.211188319593142,2471,"Orem, Utah"
252,28.565530203947105,-81.34301236406836,0.754768639230005,0.5550708660715876,0.5194527519620682,0.6621365072458443,0.5531951812407576,0.16009648893646927,0.191511171133493,0.2307776638474623,0.1657779658037048,0.2166003210791443,9492,"Orlando, Florida"
253,34.332312006578945,-89.48532434210526,0.6925787728026535,0.6080016583747927,0.5398700939745716,0.6812465450525153,0.5168946932006634,0.1752717910377956,0.192288744677998,0.2182501271867371,0.1631619278950165,0.2060234063813115,608,"Oxford, Mississippi"
254,34.193249326145555,-119.17936886792454,0.7072368421052632,0.5416089566020315,0.4910549399815328,0.6760734072022161,0.5775334718374885,0.1702473090756378,0.1842369572376667,0.2092198220715936,0.1592882550186781,0.2026487556832701,742,"Oxnard, California"
255,30.175558834586468,-85.63085244360902,0.7123655913978495,0.5468848829854522,0.4962444655281467,0.6577719797596457,0.5847960151802657,0.163341801314669,0.1890142203807669,0.226893966538532,0.1671929502214164,0.2113150110177444,532,"Panama City, Florida"
256,39.490747601476016,-104.83728068880689,0.7293028322440087,0.56609477124183,0.5260893246187364,0.6516067538126362,0.5596132897603486,0.1688390667693206,0.1955026140312276,0.2323526997048158,0.1785947104847722,0.2174532437002296,813,"Parker, Colorado"
257,46.240096447368416,-119.09722552631578,0.7519654088050315,0.5493317610062893,0.48259209344115,0.6578223270440252,0.5645777178796046,0.1646003905688371,0.1991223994921985,0.2295152094054075,0.1669287637493827,0.2117364592714216,760,"Pasco, Washington"
258,30.45003913043478,-87.22472439204127,0.7295727136431784,0.566013868065967,0.5364349075462269,0.6456459270364817,0.5464923788105948,0.1705611098447229,0.2006353561354864,0.2339961692175522,0.1964773923451374,0.2173854148949295,1357,"Pensacola, Florida"
259,30.477055299176726,-97.65397762507405,0.7398289556578566,0.5468357792425815,0.4940486777845067,0.6618060982836991,0.5587793715389728,0.16324050792288403,0.19224358074756226,0.23327892482285045,0.16492896751210767,0.21584099606662338,1841,"Pflugerville, Texas"
260,40.1262,-75.5268,0.6965415913200723,0.5741410488245932,0.5604656419529838,0.6447408077154912,0.5517254370102471,0.1750645101311142,0.1791412550700162,0.2230687219561085,0.1564649266684573,0.204405313329881,559,"Phoenixville, Pennsylvania"
261,40.43762111423915,-79.98434376944732,0.7339403806350648,0.562503155131506,0.5357413296986219,0.6579395729213994,0.5644593366651522,0.1679391041730139,0.1943672481481591,0.2260332207346885,0.162605080429859,0.2091022925266351,6749,"Pittsburgh, Pennsylvania"
262,37.66903512064344,-121.87801099195713,0.692963088768116,0.5425158514492754,0.5169270833333333,0.6219712409420289,0.5886265851449276,0.1657685373361071,0.1898314627592138,0.2298216842312642,0.1596256565530504,0.2000854405964566,746,"Pleasanton, California"
263,27.280870909090908,-80.36012,0.739405439595193,0.5458965844402277,0.4875079063883618,0.6697106261859582,0.5557005060088552,0.1680710387555479,0.1893202971425773,0.2263708501982962,0.1764256816385368,0.2216473346148433,550,"Port Saint Lucie, Florida"
264,36.06604624277456,-119.02160443159924,0.7457010582010581,0.5255869708994708,0.4686673280423281,0.652323082010582,0.5863508597883598,0.1632946124934569,0.2003756032035184,0.2358742446011948,0.1796481397449779,0.2167700810228443,519,"Porterville, California"
265,43.67503126843658,-70.26939483775811,0.7670511850731215,0.5637291981845688,0.5365922844175491,0.6857349974785678,0.5324634392334846,0.1485103651702043,0.1919757247991724,0.2199563674729485,0.1500194109065276,0.2145827319979936,678,"Portland, Maine"
266,41.82360092592592,-71.41268317901235,0.7642248215701823,0.5703310864393338,0.5196933650541898,0.6568530266983875,0.573949246629659,0.1599238683285845,0.1929808036602791,0.2184287011335054,0.1601639353473111,0.2126002787079713,1296,"Providence, Rhode Island"
267,46.7314,-117.17328249097471,0.7150635208711433,0.576867816091954,0.535768300060496,0.6637931034482759,0.5352011494252873,0.1649879885379635,0.1848122405668057,0.2210937448127082,0.1630998960940394,0.2025288572048355,554,"Pullman, Washington"
268,40.4441,-75.345,0.6453712261244609,0.5633471965495995,0.5234134319162046,0.6650878003696857,0.5911891558841651,0.1854130553171849,0.1734515594634272,0.2211902804765033,0.1633886078777426,0.1862248214192728,546,"Quakertown, Pennsylvania"
269,34.94655267062315,-83.42969807121662,0.7448313039066464,0.5460109081684424,0.51912100456621,0.672406139015728,0.551179604261796,0.1710329059210515,0.1902332127365059,0.2235688640064223,0.1635351439107036,0.2092570567415035,674,"Rabun Gap, Georgia"
270,35.77199660415611,-78.63335491637102,0.7333765112262522,0.5549708549222798,0.524487262521589,0.6523477979274611,0.550955310880829,0.1654428863921754,0.192945482512647,0.2255154047201172,0.1720399523735071,0.2102576123825981,3946,"Raleigh, North Carolina"
271,40.34146397058823,-75.93799102941176,0.7402735943775101,0.5596762048192772,0.5168800200803213,0.6702120983935743,0.5798506526104418,0.163284384716172,0.1838594129215219,0.2305665490631883,0.1638417137318411,0.2077897072030999,680,"Reading, Pennsylvania"
272,39.51868877481178,-119.81249520876112,0.7515503189227498,0.5729388140798488,0.508785140562249,0.6698706591070163,0.5644489723600283,0.1564967381957051,0.187981019123507,0.2280585828657998,0.1574247869263816,0.2121979404995555,1461,"Reno, Nevada"
273,43.81252957130359,-111.7855026246719,0.6809712441314554,0.5571266138497653,0.5678733861502347,0.6840338908450704,0.501118691314554,0.1732152767919845,0.1723354822386014,0.2263936051419733,0.1522911418151493,0.1965244666771794,1143,"Rexburg, Idaho"
274,29.599899490528436,-95.68255678972929,0.7303137449310457,0.5620957620522367,0.5038208915731124,0.6637507738992441,0.556324442758225,0.15983755173709974,0.1901759002592949,0.221966264743973,0.16186494839424242,0.21413459090648204,1439,"Richmond, Texas"
275,37.54222926504822,-77.46544516129032,0.7647764712565326,0.5710988979777324,0.5307316518972961,0.6793200408997955,0.5474892069984094,0.159794372731572,0.1957884742326348,0.2177840244639518,0.1624972502568489,0.2145436264816576,3007,"Richmond, Virginia"
276,33.94936356610543,-117.4038422577974,0.7371960592509782,0.553381777529346,0.514247950437861,0.6692868455375443,0.5633966834358114,0.1617481417865864,0.1838487567449482,0.2222174121486348,0.1589749551706249,0.205854160129505,3623,"Riverside, California"
277,37.28949980487805,-79.95495834146341,0.7408582089552239,0.5438640132669984,0.5130597014925373,0.6625621890547264,0.5890339966832504,0.1689126536142762,0.1951604182142834,0.2329136088743905,0.1627254782151979,0.208050678985001,1025,"Roanoke, Virginia"
278,42.6098525582098,-83.10068037691913,0.7275917211443527,0.570910530746057,0.5193197506684348,0.6623935956830693,0.5496204100480416,0.1598848556620911,0.18903238852269813,0.22285025100157776,0.1631036758969828,0.21034335937564566,2204,"Rochester Hills, Michigan"
279,44.03305984251968,-92.4713776902887,0.7261144713261648,0.5896057347670252,0.487959229390681,0.6766633064516129,0.5425907258064516,0.1711573793711333,0.1989188416640876,0.2294118535404865,0.1521740074523233,0.2131228505565542,762,"Rochester, Minnesota"
280,43.14696049469965,-77.61015282685513,0.7243158978084514,0.567751846470517,0.5201068531299189,0.6719185131371838,0.5542589901925172,0.1689923691293796,0.1873582357033441,0.2245156036280374,0.1579671124860525,0.2079894455936566,2830,"Rochester, New York"
281,42.26702608695653,-89.06473152173912,0.723906324298621,0.5539110794103662,0.5201795054683784,0.666993580599144,0.571178078934855,0.1648304882693753,0.1891230258515077,0.2185661210695155,0.1580762860793394,0.2023920200754193,736,"Rockford, Illinois"
282,38.77420979943186,-121.2808078028488,0.7473692442442442,0.5609307968682968,0.49893520752895754,0.6639494405119405,0.5689946643071643,0.15381672724093048,0.18851479032659801,0.22374177960226516,0.15682940766531686,0.20367030089611693,1659,"Rocklin, California"
283,38.5809041556145,-121.49076923076925,0.7415147764776477,0.546757800780078,0.5044582583258326,0.664899302430243,0.5655143639363936,0.1633193203797719,0.1878704861048094,0.2171208027412996,0.1580193935775165,0.2109446880461982,4524,"Sacramento, California"
284,29.910487794612795,-81.37137508417509,0.7297672672672673,0.5556493993993994,0.5151276276276276,0.6585773273273273,0.5679804804804806,0.1698544948877226,0.1850163393167928,0.2278802857517133,0.167880554336887,0.2129882589873341,1188,"Saint Augustine, Florida"
285,38.78176854521625,-90.52450432503277,0.7224398274296095,0.5762942779291553,0.5323569482288828,0.6729961398728429,0.5522536330608538,0.1677687730158465,0.1919924506198059,0.2226857946461676,0.1610974965297136,0.2112733812101618,763,"Saint Charles, Missouri"
286,44.94461369168357,-123.03014097363084,0.7135901413305756,0.5480006894174422,0.5083807307824888,0.6499052051016891,0.5611642537056188,0.1687409101860924,0.1827338485880875,0.2147440542180612,0.16904103120745,0.213379223990731,986,"Salem, Oregon"
287,36.690808123249305,-121.64229159663866,0.7531234837457546,0.5422125181950509,0.4954209121785541,0.6648168364871422,0.5682920912178554,0.1644339129801367,0.1748288511280839,0.2079561253072652,0.1600981506821674,0.2032137883551655,714,"Salinas, California"
288,29.432601549447583,-98.49500161681487,0.741772805308092,0.5535391146993318,0.5061914207498144,0.6651847856347439,0.5729195666295472,0.1616561324490248,0.1910353965835368,0.2267227994043628,0.1684084176365402,0.2122366256529602,7422,"San Antonio, Texas"
289,32.768331105596445,-117.15651300701694,0.7416468742669481,0.575007697044335,0.541677662444288,0.6576629574243491,0.5347613183204316,0.1598304162275186,0.1885673605368279,0.2230978309553057,0.158638318556113,0.2109829267530966,11686,"San Diego, California"
290,35.27987845705968,-120.6303324599709,0.7509426847662142,0.5547699849170438,0.5395927601809954,0.648410005027652,0.5503393665158371,0.1613349785700642,0.1904227071830621,0.2305492343603035,0.1634730254172127,0.2134276202228413,687,"San Luis Obispo, California"
291,29.874474105621804,-97.93686660988077,0.7637915936952715,0.5554582603619381,0.5156888499708114,0.6548817863397548,0.5792104495037945,0.1563602567228208,0.1937391238458234,0.2324004005874294,0.1801607114666779,0.205549080496497,587,"San Marcos, Texas"
292,34.425834042553184,-119.71467843326886,0.7737558450233801,0.5715806613226453,0.5379300267201068,0.64311957247829,0.542251169004676,0.1529001361682496,0.1924614703389073,0.2198256347232184,0.1591072700379595,0.205485820887569,1034,"Santa Barbara, California"
293,36.98352699619772,-122.0174896070976,0.7767779939472547,0.5455306960657156,0.5160235624729789,0.6384835711197578,0.5660938175529615,0.1658278818524333,0.1921009532956696,0.2263065636157623,0.1568432847255743,0.2182515412787044,789,"Santa Cruz, California"
294,34.02632178988327,-118.48197457846952,0.7558576480990273,0.5590185676392573,0.5631354995579134,0.6368534482758621,0.5410035366931919,0.1655987403923896,0.1901919666053319,0.2220946122065116,0.1769834819146621,0.2075894700238804,771,"Santa Monica, California"
295,38.44342396313364,-122.72390331797236,0.7454427083333334,0.56292724609375,0.5172322591145834,0.65716552734375,0.5547688802083334,0.1627422144839788,0.1866376768057395,0.2148109196330301,0.1584639667026365,0.2086680517941391,1085,"Santa Rosa, California"
296,27.323703795966782,-82.50815397390274,0.7548057259713701,0.5686605316973415,0.5393660531697342,0.6531441717791411,0.5262525562372188,0.1639420665418859,0.1955209148997725,0.2249444230651021,0.1682390838590968,0.2256742554192789,843,"Sarasota, Florida"
297,40.34967890938252,-111.8995976744186,0.6543919827818132,0.5417002959375841,0.5551351896690879,0.6851459510357816,0.5380515200430455,0.1654504873719277,0.173388608421999,0.2225377429222118,0.1496938121945062,0.1973633890044161,1247,"Saratoga Springs, Utah"
298,32.0594582697201,-81.10844618320611,0.7618458663148636,0.5593942392260334,0.5175351802990326,0.6686455584872472,0.5546668865435356,0.1635130918812342,0.1922456374999604,0.224806917351434,0.1696554061661304,0.2136564591254022,786,"Savannah, Georgia"
299,42.81187988023952,-73.92413592814371,0.7143098782138024,0.5604420387911593,0.5115866035182679,0.6509641407307172,0.5581867388362652,0.1717535836221541,0.1898127664706975,0.2169546592421409,0.163519679062691,0.2073760235092835,835,"Schenectady, New York"
300,32.48362824858757,-93.74944595103575,0.7496776273372018,0.5719696969696969,0.5272001934235977,0.679803352675693,0.5517408123791102,0.1576511152068715,0.2037285470743825,0.2255590811019955,0.1662787119538476,0.2254423226262578,531,"Shreveport, Louisiana"
301,34.23496361592025,-118.80739815367248,0.7461500216557988,0.5789011057770393,0.540801488658663,0.6554232909891464,0.5446707985753324,0.16201293004017348,0.19354335172604292,0.22411114098352736,0.16815976971866387,0.21478654563710436,1256,"Simi Valley, California"
302,42.48697521160822,-96.37146650544136,0.6712287104622872,0.5721309813463098,0.5439983779399838,0.6842558799675589,0.5679744525547445,0.1647855293270165,0.1637391509441516,0.2083431067071851,0.1483368361998284,0.2029387339643875,827,"Sioux City, Iowa"
303,43.538547256637166,-96.7109742477876,0.7044797687861272,0.5679190751445087,0.5196893063583815,0.668332530507386,0.5659722222222222,0.1786519567833505,0.183192293815907,0.2290286158424617,0.1650064509951923,0.2105496927091847,1130,"Sioux Falls, South Dakota"
304,41.67592696929239,-86.25245967957277,0.7211711711711711,0.5541103603603604,0.4909628378378378,0.670411036036036,0.5756475225225226,0.171397336736235,0.18745769988854,0.2173723525913123,0.1688566509408499,0.2119973873497964,749,"South Bend, Indiana"
305,40.18746871401152,-75.00191439539347,0.671737660581474,0.5564570655848546,0.5536257606490872,0.6591869506423259,0.5870943204868154,0.1699654254634226,0.1853410057382973,0.2345439350278458,0.1617113868765523,0.1825339153602616,521,"Southampton, Pennsylvania"
306,47.67603677581864,-117.40776784214944,0.7435110773240661,0.5660023892267594,0.4997284969591659,0.6646394439617723,0.566988850275123,0.1674714816638549,0.1905559527667819,0.2291471622264063,0.1659261008328177,0.2112621564561785,2382,"Spokane, Washington"
307,30.10212763744428,-95.45655631500742,0.7264992408906883,0.558535762483131,0.5117767375168691,0.6531819331983806,0.5612875337381916,0.1719831166671641,0.1979903279762809,0.2253413854310346,0.1770457240050566,0.2150531792337003,2019,"Spring, Texas"
308,42.10380487444608,-72.57039084194979,0.7291353383458646,0.5700501253132831,0.5192355889724312,0.6853070175438597,0.5587406015037594,0.1712110260011137,0.193952822743578,0.2216576936839067,0.159128093901166,0.2208382258811801,677,"Springfield, Massachusetts"
309,37.1970836664763,-93.28990234151914,0.7345512446518864,0.5759918319719953,0.5259383508362505,0.6743606573317775,0.5588900233372228,0.1652993067700176,0.1889512140582319,0.2262547863438338,0.1645054909223896,0.2154596603196286,1751,"Springfield, Missouri"
310,38.62821885012726,-90.23464162299746,0.7396472000817494,0.564435162477008,0.5326678418148375,0.667726854690374,0.5511444921316165,0.1653831835819997,0.1928111165069882,0.2244943432905767,0.1604358357094614,0.2148409609934713,6679,"St Louis, Missouri"
311,37.09552754946727,-113.56862442922376,0.6912951575710992,0.5607065078145016,0.540561747373815,0.6895977453241097,0.5416986933128363,0.1697548688765718,0.1854178894604689,0.227299606276361,0.153758782774782,0.2081585780880157,1314,"St. George, Utah"
312,27.784706317689533,-82.6746523465704,0.7615084985835694,0.5793594586087504,0.5540014164305949,0.6722930437519673,0.525535096002518,0.1646706263320909,0.1910345943423323,0.2237133395426323,0.1652735484998507,0.2166929655432787,1108,"St. Petersburg, Florida"
313,41.06720752427184,-73.54716177184467,0.7173766583747927,0.5686411691542289,0.5473414179104478,0.6462479270315091,0.5441801409618574,0.1708076816256762,0.1954770441999456,0.229972294033082,0.1614139608345716,0.2149596090390729,824,"Stamford, Connecticut"
314,40.79982661804922,-77.86663053783045,0.7313912101516559,0.5638734138037759,0.5224969049829774,0.6568012999071495,0.5421309192200557,0.1599693132395905,0.1885900430153427,0.226875029492774,0.1570630126495307,0.2067429471746875,1097,"State College, Pennsylvania"
315,40.58195629844961,-74.13888701550387,0.7307581018518519,0.5615079365079365,0.4944403108465608,0.6477141203703705,0.5715112433862434,0.1862662595081301,0.1918972883728358,0.2316380437663633,0.1623366705886459,0.2136783439267194,1032,"Staten Island, New York"
316,36.12386029850746,-97.06327691542288,0.7181742043551089,0.5888819095477387,0.538358458961474,0.6943676716917924,0.5429020100502513,0.1727313824304236,0.1835987763046296,0.2315464194019995,0.1543173220016767,0.2013864211902552,1005,"Stillwater, Oklahoma"
317,37.97463165137614,-121.302776146789,0.7228476821192052,0.5544564017660044,0.4941639072847682,0.6814845474613687,0.5706815673289183,0.1627666305197393,0.1827511017824873,0.2098523317766309,0.1554035672144141,0.2004328976415981,1526,"Stockton, California"
318,34.50014528593508,-91.55248871715612,0.7586584394904459,0.5496284501061571,0.51416533970276,0.6683253715498938,0.5698978237791932,0.1668255138122885,0.1921734313680431,0.2322863915548772,0.1625795104716002,0.214401610620721,647,"Stuttgart, Arkansas"
319,33.01012293291731,-80.17910826833074,0.7333737210554657,0.5658656435110393,0.4974757673667205,0.6701669359181475,0.570543887991384,0.1687890703037451,0.1950092056504402,0.2240371680860867,0.1611315542862252,0.2116721408288156,641,"Summerville, South Carolina"
320,43.05108559322034,-76.14431186440677,0.7333500111185235,0.5694212808539026,0.5395819435179009,0.6709889926617745,0.5579830998443407,0.1671115965322482,0.1871214544773746,0.2214868749569178,0.1665957900286187,0.2095595148509309,1534,"Syracuse, New York"
321,47.2424111521418,-122.4512064254062,0.7546508664627931,0.5539468654434251,0.5029784658511723,0.6591010448521916,0.5591790902140673,0.1544657940883102,0.1894453596606365,0.2274530091365986,0.1626829343878349,0.215464522083959,2708,"Tacoma, Washington"
322,30.46413468433359,-84.29711964146531,0.7329710144927537,0.5647809617918313,0.5407608695652174,0.6684453227931489,0.5445075757575758,0.1655102076401109,0.1882881048552647,0.231877419247748,0.1646462354402344,0.2093613240455716,2566,"Tallahassee, Florida"
323,27.962683124818152,-82.46049207157405,0.7317692521756729,0.5741626189030561,0.5344407761586724,0.6720710635498888,0.5524501619105444,0.1636135248941555,0.1901635598294586,0.2241492372711251,0.1635199605960896,0.2055906834016832,6874,"Tampa, Florida"
324,39.44691871428572,-87.39586414285714,0.7272559171597633,0.5461661735700197,0.5159948224852071,0.6794871794871794,0.5908222386587771,0.1667829717833013,0.186098098383564,0.2210102031374324,0.1655246366852809,0.2139094046923147,700,"Terre Haute, Indiana"
325,41.66926829919857,-83.59194906500444,0.6950534960819771,0.5646097046413503,0.544831223628692,0.669793550331525,0.5358838155515371,0.1846764635936689,0.1860907935098168,0.2314125186575315,0.1653904344316847,0.215066335688256,1123,"Toledo, Ohio"
326,39.03065496575343,-95.70448938356164,0.7273026315789474,0.564656432748538,0.5074195906432749,0.672514619883041,0.5618055555555556,0.1694949790499836,0.175553244778164,0.2237464529685349,0.1674043787098472,0.2053988681526846,584,"Topeka, Kansas"
327,33.83462048894063,-118.33487799767173,0.7312041564792175,0.5466839853300733,0.4924612876935615,0.6388803993480032,0.5586033007334963,0.170202597716334,0.1939380399869698,0.2264943429801542,0.1657427483626117,0.2151727977304489,859,"Torrance, California"
328,40.22642805071315,-74.72624278922345,0.7334618506493507,0.5661864177489178,0.5091653138528138,0.6677827380952381,0.5603016774891775,0.1596216321015507,0.1870943984389616,0.2194007734968005,0.1595296768827977,0.2048629333098985,631,"Trenton, New Jersey"
329,32.22914544596508,-110.9314469797074,0.7387503020053153,0.558790368043811,0.5077263026495933,0.6622070548441653,0.5552619392767979,0.1672948542580232,0.1922740876825545,0.2279210360881488,0.1656840108463596,0.2132860426351499,4238,"Tucson, Arizona"
330,36.13263899782135,-95.96754557734204,0.7406798245614035,0.5546733212341198,0.5194721718088324,0.6584335299455535,0.5643148820326679,0.1642704016072028,0.1888943883741049,0.2238194750655378,0.1625716794874308,0.2118133439111902,2295,"Tulsa, Oklahoma"
331,33.19732143774069,-87.54349711168165,0.7129599030623485,0.5969376514650804,0.58488929279577,0.6698198942498348,0.5293429169420577,0.1622164976220202,0.1878768723856199,0.2267986321644216,0.1653927314747542,0.199861915790751,1558,"Tuscaloosa, Alabama"
332,38.11047441441442,-122.23487819819822,0.7548505089058525,0.548465330788804,0.5060034987277353,0.6665473918575063,0.550373727735369,0.1555709309436011,0.1860385750560269,0.225071481312224,0.1605932702868441,0.2128912487175348,555,"Vallejo, California"
333,45.66003635869565,-122.63445766304348,0.7470221477759167,0.547250139586823,0.4905313605062348,0.6561627582356225,0.5807626093430113,0.1613002192945179,0.1918700827198033,0.2202074911574113,0.1667551838039758,0.2108965512532588,1840,"Vancouver, Washington"
334,34.50563388581952,-117.33957845303868,0.7260377059569074,0.5472116603295311,0.4837214828897338,0.6688450570342205,0.5951362484157161,0.1645076804752321,0.1958707698989688,0.226585130304644,0.1712254719463356,0.2056517319162747,543,"Victorville, California"
335,36.8400939126599,-76.02371927657698,0.7366790932369333,0.565907892754933,0.5213793492995933,0.6717314354571472,0.5564185118240699,0.1639031671458584,0.1868672686534354,0.2218776131900172,0.1648634316562085,0.2127910970217138,2267,"Virginia Beach, Virginia"
336,36.336068138195785,-119.30239385796546,0.7298254281949934,0.5504364295125165,0.4983530961791831,0.660737812911726,0.5646821475625824,0.1712486250354989,0.1798072102544323,0.2272002302004908,0.160677827795655,0.2139375126779415,521,"Visalia, California"
337,31.53573271276596,-97.13348058510638,0.6966734478601567,0.6074442435201929,0.5526672694394213,0.6736550632911392,0.5092299578059072,0.1764325851231561,0.1927878725606225,0.2301182006581533,0.152680186690099,0.2044115326329748,1128,"Waco, Texas"
338,42.48058846625767,-92.36349042944784,0.6343994643592913,0.5446281417387722,0.5019571487433044,0.6527348578491965,0.5710496497733828,0.1680601320268596,0.1645464039045536,0.2065216976078769,0.1572971286259402,0.1930637565912667,815,"Waterloo, Iowa"
339,34.9251,-80.7278,0.7048542894564506,0.5548870333988212,0.5234528487229863,0.6432547478716438,0.5597986247544204,0.1746538158128793,0.1901605481553833,0.2250699212418136,0.1820511920551573,0.2185789428582031,513,"Waxhaw, North Carolina"
340,28.2411,-82.32332684931508,0.7310552407932012,0.5508439565627951,0.516347969782814,0.6659879603399433,0.5719723796033994,0.1616948256583306,0.1959436485359128,0.2260674197501004,0.1668517196439484,0.209257774004935,730,"Wesley Chapel, Florida"
341,39.95924096728307,-75.5873920341394,0.7237698986975398,0.570399179932465,0.5342197298601061,0.6590991316931982,0.5599372889532079,0.1712177375254182,0.1933186329517863,0.2196714104775198,0.1664586306148446,0.204115738710868,703,"West Chester, Pennsylvania"
342,40.4436720338983,-86.92505858050848,0.7272727272727273,0.5794778138528138,0.5180149711399711,0.640850468975469,0.5408324314574314,0.1680887490274175,0.1967114946848933,0.2404779799237932,0.1648683877109933,0.2149450991752829,944,"West Lafayette, Indiana"
343,26.706331731448763,-80.10674113074205,0.7282507451564829,0.5736152508693492,0.5412785643318431,0.6556756085444609,0.526359910581222,0.1624939908812755,0.1856673206855972,0.224710889834693,0.1643557159134044,0.2108608501276494,1415,"West Palm Beach, Florida"
344,40.11843120849934,-82.90303771580345,0.6632784498207885,0.5600638440860215,0.5380824372759856,0.651013664874552,0.5296818996415771,0.1684781983874593,0.1876678916170501,0.2179477058416183,0.1619794989583467,0.2038603845037259,753,"Westerville, Ohio"
345,37.6929415313225,-97.33958462877033,0.7229240109674893,0.5484723854289072,0.5059733646690168,0.6654181355268313,0.563858695652174,0.1683341013808099,0.1856863045702272,0.2266684821475148,0.1605530807744255,0.2035569462362127,1724,"Wichita, Kansas"
346,37.30211424581005,-76.7484647113594,0.7312756228319143,0.5587945443077894,0.5482103437401451,0.657560706401766,0.5502404604225796,0.1677067751408054,0.2025866201567754,0.2373545526638633,0.1719515849246129,0.2229337571794587,1074,"Williamsburg, Virginia"
347,41.23772478777589,-76.99851629881155,0.7257010834926705,0.6511312938177183,0.5503505417463352,0.726497769279796,0.4765376035691523,0.1644987105142475,0.1949722111605227,0.2136282977935288,0.1625663425019749,0.2290898642203513,589,"Williamsport, Pennsylvania"
348,39.75671385584325,-75.56883540937719,0.7095097688825351,0.561055515844651,0.5027549440076244,0.6575530140576602,0.5482487491065047,0.1706196787400591,0.191249561115319,0.2264248727228973,0.1573299364351044,0.2123176136554279,1429,"Wilmington, Delaware"
349,34.21505381924198,-77.903130787172,0.7380809894274885,0.5560791940953521,0.5283762218232595,0.6739352683024137,0.547563834031518,0.1687133104650282,0.1868990408635209,0.2338091025379514,0.1585108354204472,0.2066694475730951,1715,"Wilmington, North Carolina"
350,36.0920262937063,-80.2733551048951,0.7312925170068028,0.5631377551020408,0.529655612244898,0.6685495626822158,0.5569576044703596,0.160439482589017,0.1921395244655992,0.2234324222413138,0.1600236649944798,0.2062854438363463,1430,"Winston-Salem, North Carolina"
351,42.26766438515081,-71.80261821345708,0.733133701883702,0.5565878378378378,0.4922706797706797,0.6528972153972155,0.578803235053235,0.1609461279881929,0.1874892455487513,0.2192116287452011,0.1628404882526128,0.2074995002104362,862,"Worcester, Massachusetts"
352,39.96490916030535,-76.71671221374045,0.7219678874734607,0.5528463375796179,0.5018577494692145,0.6553211252653928,0.5612062101910829,0.1635854908485389,0.1908321479730697,0.2274901314401036,0.17152135070477,0.2161777067326416,655,"York, Pennsylvania"
353,32.70503344000001,-114.64008816,0.6876008064516129,0.5599798387096774,0.5142137096774193,0.651646505376344,0.5559811827956989,0.1605400454190717,0.1813154004869758,0.2045709075600104,0.1710367257801129,0.2078637963656992,625,"Yuma, Arizona"
